{"version": 0.6, "generator": "Overpass API 0.7.62.11 87bfad18", "osm3s": {"timestamp_osm_base": "2026-05-02T07:33:17Z", "copyright": "The data included in this document is from www.openstreetmap.org. The data is made available under ODbL."}, "elements": [{"type": "node", "id": 501331343, "lat": 6.978322, "lon": 3.5218135, "tags": {"GNS:dsg_code": "PPL", "GNS:dsg_string": "populated place", "GNS:id": "-1997354", "alt_name": "Adeyokum", "fixme": "no population estimate available, defaulted to village", "is_in:country": "Nigeria", "name": "Adeyokun", "place": "village", "source": "GNS"}}, {"type": "node", "id": 501333675, "lat": 6.85328, "lon": 3.4488135, "tags": {"GNS:dsg_code": "PPL", "GNS:dsg_string": "populated place", "GNS:id": "10281334", "fixme": "no population estimate available, defaulted to village", "is_in:country": "Nigeria", "name": "Arogun", "place": "village", "source": "GNS"}}, {"type": "node", "id": 501334081, "lat": 7.033333, "lon": 3.65, "tags": {"GNS:dsg_code": "PPL", "GNS:dsg_string": "populated place", "GNS:id": "-2008359", "alt_name": "Gbasemo Iye Esulu;Gbashemo;Gbasemo-Iye-Fsulu", "fixme": "no population estimate available, defaulted to village", "is_in:country": "Nigeria", "name": "Gbashemo", "place": "village", "source": "GNS"}}, {"type": "node", "id": 501334377, "lat": 7.15, "lon": 3.533333, "tags": {"GNS:dsg_code": "PPL", "GNS:dsg_string": "populated place", "GNS:id": "-2001234", "alt_name": "Ogunda", "fixme": "no population estimate available, defaulted to village", "is_in:country": "Nigeria", "name": "Baala", "place": "village", "source": "GNS"}}, {"type": "node", "id": 501359027, "lat": 7.15, "lon": 3.616667, "tags": {"GNS:dsg_code": "PPL", "GNS:dsg_string": "populated place", "GNS:id": "-2011017", "alt_name": "Igbedu", "fixme": "no population estimate available, defaulted to village", "is_in:country": "Nigeria", "name": "Igbedi", "place": "village", "source": "GNS"}}, {"type": "node", "id": 501361361, "lat": 7.2, "lon": 3.716667, "tags": {"GNS:dsg_code": "PPL", "GNS:dsg_string": "populated place", "GNS:id": "-1998710", "alt_name": "Akigbogun", "fixme": "no population estimate available, defaulted to village", "is_in:country": "Nigeria", "name": "Akingbogun", "place": "village", "source": "GNS"}}, {"type": "node", "id": 501371342, "lat": 7.116667, "lon": 3.65, "tags": {"GNS:dsg_code": "PPL", "GNS:dsg_string": "populated place", "GNS:id": "-2023313", "alt_name": "Aparun", "fixme": "no population estimate available, defaulted to village", "is_in:country": "Nigeria", "name": "Oloparun", "place": "village", "source": "GNS"}}, {"type": "node", "id": 501372203, "lat": 7.116667, "lon": 3.683333, "tags": {"GNS:dsg_code": "PPL", "GNS:dsg_string": "populated place", "GNS:id": "-2024532", "alt_name": "Owojaw", "fixme": "no population estimate available, defaulted to village", "is_in:country": "Nigeria", "name": "Owojo", "place": "village", "source": "GNS"}}, {"type": "node", "id": 501380515, "lat": 7.1166377, "lon": 3.6173, "tags": {"GNS:dsg_code": "PPL", "GNS:dsg_string": "populated place", "GNS:id": "-2024690", "fixme": "no population estimate available, defaulted to village", "name": "Ategu", "place": "village", "source": "GNS"}}, {"type": "node", "id": 501404678, "lat": 7.066667, "lon": 3.783333, "tags": {"GNS:dsg_code": "PPL", "GNS:dsg_string": "populated place", "GNS:id": "-2012571", "alt_name": "Ishan", "fixme": "no population estimate available, defaulted to village", "is_in:country": "Nigeria", "name": "Isan", "place": "village", "source": "GNS"}}, {"type": "node", "id": 501404700, "lat": 7.1, "lon": 3.666667, "tags": {"GNS:dsg_code": "PPL", "GNS:dsg_string": "populated place", "GNS:id": "-2012553", "alt_name": "Amushan", "fixme": "no population estimate available, defaulted to village", "is_in:country": "Nigeria", "name": "Isagolu", "place": "village", "source": "GNS"}}, {"type": "node", "id": 501409264, "lat": 7.066667, "lon": 3.566667, "tags": {"GNS:dsg_code": "PPL", "GNS:dsg_string": "populated place", "GNS:id": "-2011423", "alt_name": "Ijeun", "fixme": "no population estimate available, defaulted to village", "is_in:country": "Nigeria", "name": "Ijemo", "place": "village", "source": "GNS"}}, {"type": "node", "id": 501409933, "lat": 7.183333, "lon": 3.616667, "tags": {"GNS:dsg_code": "PPL", "GNS:dsg_string": "populated place", "GNS:id": "-2001240", "alt_name": "Base;Baase Iporo", "fixme": "no population estimate available, defaulted to village", "is_in:country": "Nigeria", "name": "Base", "place": "village", "source": "GNS"}}, {"type": "node", "id": 501412002, "lat": 7.15, "lon": 3.516667, "tags": {"GNS:dsg_code": "PPL", "GNS:dsg_string": "populated place", "GNS:id": "-1997301", "alt_name": "Delokun", "fixme": "no population estimate available, defaulted to village", "is_in:country": "Nigeria", "name": "Adelokun", "place": "village", "source": "GNS"}}, {"type": "node", "id": 501440240, "lat": 7.216667, "lon": 3.516667, "tags": {"GNS:dsg_code": "PPL", "GNS:dsg_string": "populated place", "GNS:id": "-2021736", "fixme": "no population estimate available, defaulted to village", "is_in:country": "Nigeria", "name": "Odeda", "name:ru": "\u041e\u0434\u0435\u0434\u0430", "place": "village", "source": "GNS"}}, {"type": "node", "id": 501440321, "lat": 7.1, "lon": 3.616667, "tags": {"GNS:dsg_code": "PPL", "GNS:dsg_string": "populated place", "GNS:id": "-2026869", "alt_name": "Agboro", "fixme": "no population estimate available, defaulted to village", "is_in:country": "Nigeria", "name": "Sobande", "place": "village", "source": "GNS"}}, {"type": "node", "id": 501444206, "lat": 7.116667, "lon": 3.65, "tags": {"GNS:dsg_code": "PPL", "GNS:dsg_string": "populated place", "GNS:id": "-2007229", "alt_name": "Erunwan", "fixme": "no population estimate available, defaulted to village", "is_in:country": "Nigeria", "name": "Fodoko", "place": "village", "source": "GNS"}}, {"type": "node", "id": 501450859, "lat": 7.0, "lon": 3.616667, "tags": {"GNS:dsg_code": "PPL", "GNS:dsg_string": "populated place", "GNS:id": "-2001791", "alt_name": "Balogun Ikanna", "fixme": "no population estimate available, defaulted to village", "is_in:country": "Nigeria", "name": "Balogun", "place": "village", "source": "GNS"}}, {"type": "node", "id": 501456769, "lat": 7.2, "lon": 3.633333, "tags": {"GNS:dsg_code": "PPL", "GNS:dsg_string": "populated place", "GNS:id": "-2006670", "alt_name": "Erunwan", "fixme": "no population estimate available, defaulted to village", "is_in:country": "Nigeria", "name": "Eruwon", "place": "village", "source": "GNS"}}, {"type": "node", "id": 501457572, "lat": 7.183333, "lon": 3.45, "tags": {"GNS:dsg_code": "PPL", "GNS:dsg_string": "populated place", "GNS:id": "-2024240", "alt_name": "Osiele;Awshile;Oshiele", "fixme": "no population estimate available, defaulted to village", "is_in:country": "Nigeria", "name": "Oshiele", "place": "village", "source": "GNS"}}, {"type": "node", "id": 501459351, "lat": 7.016667, "lon": 3.516667, "tags": {"GNS:dsg_code": "PPL", "GNS:dsg_string": "populated place", "GNS:id": "-2006498", "alt_name": "Imo", "fixme": "no population estimate available, defaulted to village", "is_in:country": "Nigeria", "name": "Emo", "place": "village", "source": "GNS"}}, {"type": "node", "id": 501463670, "lat": 6.960172, "lon": 3.606745, "tags": {"GNS:dsg_code": "PPL", "GNS:dsg_string": "populated place", "GNS:id": "-1998516", "fixme": "no population estimate available, defaulted to village", "name": "Ajura", "name:ru": "\u0410\u0434\u0436\u0443\u0440\u0430", "place": "village", "source": "GNS"}}, {"type": "node", "id": 501465400, "lat": 7.116667, "lon": 3.666667, "tags": {"GNS:dsg_code": "PPL", "GNS:dsg_string": "populated place", "GNS:id": "-2022034", "alt_name": "Ebinpejo", "fixme": "no population estimate available, defaulted to village", "is_in:country": "Nigeria", "name": "Ogbegbe", "place": "village", "source": "GNS"}}, {"type": "node", "id": 501470005, "lat": 7.033333, "lon": 3.566667, "tags": {"GNS:dsg_code": "PPL", "GNS:dsg_string": "populated place", "GNS:id": "-2026868", "alt_name": "Shobande", "fixme": "no population estimate available, defaulted to village", "is_in:country": "Nigeria", "name": "Sobande", "place": "village", "source": "GNS"}}, {"type": "node", "id": 501470614, "lat": 7.233333, "lon": 3.7, "tags": {"GNS:dsg_code": "PPL", "GNS:dsg_string": "populated place", "GNS:id": "-2024550", "alt_name": "Ayo", "fixme": "no population estimate available, defaulted to village", "is_in:country": "Nigeria", "name": "Owu", "place": "village", "source": "GNS"}}, {"type": "node", "id": 501471386, "lat": 7.1166377, "lon": 3.600633, "tags": {"GNS:dsg_code": "PPL", "GNS:dsg_string": "populated place", "GNS:id": "-2008322", "fixme": "no population estimate available, defaulted to village", "is_in:country": "Nigeria", "name": "Gbaleasun", "place": "village", "source": "GNS"}}, {"type": "node", "id": 501475301, "lat": 7.083333, "lon": 3.633333, "tags": {"GNS:dsg_code": "PPL", "GNS:dsg_string": "populated place", "GNS:id": "-2008483", "alt_name": "Kenta", "fixme": "no population estimate available, defaulted to village", "is_in:country": "Nigeria", "name": "Gbure", "place": "village", "source": "GNS"}}, {"type": "node", "id": 501475820, "lat": 6.866667, "lon": 3.466667, "tags": {"GNS:dsg_code": "PPL", "GNS:dsg_string": "populated place", "GNS:id": "-2015858", "alt_name": "Kori-Okude", "country": "Nigeria", "fixme": "no population estimate available, defaulted to village", "name": "Kori", "place": "village", "source": "GNS"}}, {"type": "node", "id": 501484284, "lat": 6.9700678, "lon": 3.6757466, "tags": {"GNS:dsg_code": "PPL", "GNS:dsg_string": "populated place", "GNS:id": "-2021759", "fixme": "no population estimate available, defaulted to village", "name": "Ode-Remo", "place": "village", "source": "GNS"}}, {"type": "node", "id": 501484294, "lat": 6.9923203, "lon": 3.6808622, "tags": {"GNS:dsg_code": "PPL", "GNS:dsg_string": "populated place", "GNS:id": "-2012586", "fixme": "no population estimate available, defaulted to village", "name": "Ishara", "name:ru": "\u0418\u0448\u0430\u0440\u0430", "place": "town", "source": "GNS"}}, {"type": "node", "id": 501486050, "lat": 6.916667, "lon": 3.566667, "tags": {"GNS:dsg_code": "PPL", "GNS:dsg_string": "populated place", "GNS:id": "-2017855", "alt_name": "Lawgbara", "fixme": "no population estimate available, defaulted to village", "is_in:country": "Nigeria", "name": "Logbara", "place": "village", "source": "GNS"}}, {"type": "node", "id": 501486119, "lat": 7.1166377, "lon": 3.6173, "tags": {"GNS:dsg_code": "PPL", "GNS:dsg_string": "populated place", "GNS:id": "-2021442", "fixme": "no population estimate available, defaulted to village", "name": "Shilade", "place": "village", "source": "GNS"}}, {"type": "node", "id": 501489204, "lat": 7.066667, "lon": 3.55, "tags": {"GNS:dsg_code": "PPL", "GNS:dsg_string": "populated place", "GNS:id": "-2012570", "alt_name": "Ishan", "fixme": "no population estimate available, defaulted to village", "is_in:country": "Nigeria", "name": "Isan", "place": "village", "source": "GNS"}}, {"type": "node", "id": 501489492, "lat": 7.233333, "lon": 3.533333, "tags": {"GNS:dsg_code": "PPL", "GNS:dsg_string": "populated place", "GNS:id": "-2021737", "alt_name": "Awdeda;Odedah", "fixme": "no population estimate available, defaulted to village", "is_in:country": "Nigeria", "name": "Odeda", "place": "village", "source": "GNS"}}, {"type": "node", "id": 501489599, "lat": 7.016667, "lon": 3.633333, "tags": {"GNS:dsg_code": "PPL", "GNS:dsg_string": "populated place", "GNS:id": "-2024809", "alt_name": "Ikanna", "fixme": "no population estimate available, defaulted to village", "is_in:country": "Nigeria", "name": "Paraga", "place": "village", "source": "GNS"}}, {"type": "node", "id": 501490846, "lat": 7.0, "lon": 3.666667, "tags": {"GNS:dsg_code": "PPL", "GNS:dsg_string": "populated place", "GNS:id": "-2012415", "fixme": "no population estimate available, defaulted to village", "name": "Ipara", "name:ru": "\u0418\u043f\u0430\u0440\u0430", "place": "village", "source": "GNS"}}, {"type": "node", "id": 501493083, "lat": 7.1, "lon": 3.516667, "tags": {"GNS:dsg_code": "PPL", "GNS:dsg_string": "populated place", "GNS:id": "-2003026", "alt_name": "Boru", "fixme": "no population estimate available, defaulted to village", "is_in:country": "Nigeria", "name": "Boruboru", "place": "village", "source": "GNS"}}, {"type": "node", "id": 501493116, "lat": 7.183333, "lon": 3.816667, "tags": {"GNS:dsg_code": "PPL", "GNS:dsg_string": "populated place", "GNS:id": "-2023305", "alt_name": "Olowunde", "fixme": "no population estimate available, defaulted to village", "is_in:country": "Nigeria", "name": "Olonde", "place": "village", "source": "GNS"}}, {"type": "node", "id": 501493251, "lat": 7.2, "lon": 3.566667, "tags": {"GNS:dsg_code": "PPL", "GNS:dsg_string": "populated place", "GNS:id": "-2005784", "alt_name": "Eddila", "fixme": "no population estimate available, defaulted to village", "is_in:country": "Nigeria", "name": "Edila", "place": "village", "source": "GNS"}}, {"type": "node", "id": 501496641, "lat": 6.9117092, "lon": 3.6643757, "tags": {"GNS:dsg_code": "PPL", "GNS:dsg_string": "populated place", "GNS:id": "-2012434", "fixme": "no population estimate available, defaulted to village", "is_in:country": "Nigeria", "name": "Iperu", "name:ru": "\u0418\u043f\u0435\u0440\u0443", "place": "town", "source": "GNS", "wikidata": "Q6064998"}}, {"type": "node", "id": 501497336, "lat": 7.0, "lon": 3.516667, "tags": {"GNS:dsg_code": "PPL", "GNS:dsg_string": "populated place", "GNS:id": "-2022111", "alt_name": "Igbore", "fixme": "no population estimate available, defaulted to village", "is_in:country": "Nigeria", "name": "Ogede", "place": "village", "source": "GNS"}}, {"type": "node", "id": 501499102, "lat": 7.0, "lon": 3.583333, "tags": {"GNS:dsg_code": "PPL", "GNS:dsg_string": "populated place", "GNS:id": "-2026928", "alt_name": "Sholo", "fixme": "no population estimate available, defaulted to village", "is_in:country": "Nigeria", "name": "Solo", "place": "village", "source": "GNS"}}, {"type": "node", "id": 501501578, "lat": 7.133333, "lon": 3.566667, "tags": {"GNS:dsg_code": "PPL", "GNS:dsg_string": "populated place", "GNS:id": "-2015588", "alt_name": "Kawgi", "fixme": "no population estimate available, defaulted to village", "is_in:country": "Nigeria", "name": "Kogi", "place": "village", "source": "GNS"}}, {"type": "node", "id": 501503371, "lat": 7.216667, "lon": 3.8, "tags": {"GNS:dsg_code": "PPL", "GNS:dsg_string": "populated place", "GNS:id": "-2026136", "alt_name": "Shanusi", "fixme": "no population estimate available, defaulted to village", "name": "Sanusi", "place": "village", "source": "GNS"}}, {"type": "node", "id": 501504567, "lat": 6.9166457, "lon": 3.4832485, "tags": {"GNS:dsg_code": "PPL", "GNS:dsg_string": "populated place", "GNS:id": "-2026936", "alt_name": "Shomoke", "fixme": "no population estimate available, defaulted to village", "name": "Someke", "place": "village", "source": "GNS"}}, {"type": "node", "id": 501508413, "lat": 7.1166377, "lon": 3.6173, "tags": {"GNS:dsg_code": "PPL", "GNS:dsg_string": "populated place", "GNS:id": "-2024690", "fixme": "no population estimate available, defaulted to village", "name": "Paipai", "place": "village", "source": "GNS"}}, {"type": "node", "id": 501509471, "lat": 7.083333, "lon": 3.683333, "tags": {"GNS:dsg_code": "PPL", "GNS:dsg_string": "populated place", "GNS:id": "-1996773", "alt_name": "Abata", "fixme": "no population estimate available, defaulted to village", "is_in:country": "Nigeria", "name": "Abatan", "place": "village", "source": "GNS"}}, {"type": "node", "id": 501509836, "lat": 7.166667, "lon": 3.683333, "tags": {"GNS:dsg_code": "PPL", "GNS:dsg_string": "populated place", "GNS:id": "-2000282", "alt_name": "Okasha", "fixme": "no population estimate available, defaulted to village", "is_in:country": "Nigeria", "name": "Araromi", "place": "village", "source": "GNS"}}, {"type": "node", "id": 501513016, "lat": 6.8885095, "lon": 3.485731, "tags": {"GNS:dsg_code": "PPL", "GNS:dsg_string": "populated place", "GNS:id": "-2024327", "alt_name": "Otere-Eruke", "country": "Nigeria", "fixme": "no population estimate available, defaulted to village", "name": "Otere", "place": "village", "source": "GNS"}}, {"type": "node", "id": 501514536, "lat": 6.9501908, "lon": 3.5067536, "tags": {"GNS:dsg_code": "PPL", "GNS:dsg_string": "populated place", "GNS:id": "10281531", "country": "Nigeria", "fixme": "no population estimate available, defaulted to village", "name": "Ariwo", "place": "village", "source": "GNS"}}, {"type": "node", "id": 501518386, "lat": 7.116667, "lon": 3.716667, "tags": {"GNS:dsg_code": "PPL", "GNS:dsg_string": "populated place", "GNS:id": "-1998364", "alt_name": "Asha", "fixme": "no population estimate available, defaulted to village", "is_in:country": "Nigeria", "name": "Ajebo", "place": "village", "source": "GNS"}}, {"type": "node", "id": 501518584, "lat": 7.166667, "lon": 3.55, "tags": {"GNS:dsg_code": "PPL", "GNS:dsg_string": "populated place", "GNS:id": "-2023537", "alt_name": "Ayedi;Oluwo Akeusi", "fixme": "no population estimate available, defaulted to village", "is_in:country": "Nigeria", "name": "Ayedi", "place": "village", "source": "GNS"}}, {"type": "node", "id": 501519699, "lat": 7.216667, "lon": 3.716667, "tags": {"GNS:dsg_code": "PPL", "GNS:dsg_string": "populated place", "GNS:id": "-2002861", "alt_name": "Gbodo", "fixme": "no population estimate available, defaulted to village", "is_in:country": "Nigeria", "name": "Bodo", "place": "village", "source": "GNS"}}, {"type": "node", "id": 501522451, "lat": 7.066667, "lon": 3.716667, "tags": {"GNS:dsg_code": "PPL", "GNS:dsg_string": "populated place", "GNS:id": "-2000840", "alt_name": "Ogunleye", "fixme": "no population estimate available, defaulted to village", "is_in:country": "Nigeria", "name": "Atoba", "place": "village", "source": "GNS"}}, {"type": "node", "id": 501522601, "lat": 7.033333, "lon": 3.45, "tags": {"GNS:dsg_code": "PPL", "GNS:dsg_string": "populated place", "GNS:id": "-2000719", "alt_name": "Ashu", "fixme": "no population estimate available, defaulted to village", "is_in:country": "Nigeria", "name": "Asu", "place": "village", "source": "GNS"}}, {"type": "node", "id": 501524806, "lat": 7.033333, "lon": 3.8, "tags": {"GNS:dsg_code": "PPL", "GNS:dsg_string": "populated place", "GNS:id": "-2026315", "alt_name": "Shemore", "fixme": "no population estimate available, defaulted to village", "is_in:country": "Nigeria", "name": "Semore", "place": "village", "source": "GNS"}}, {"type": "node", "id": 501524846, "lat": 7.15, "lon": 3.816667, "tags": {"GNS:dsg_code": "PPL", "GNS:dsg_string": "populated place", "GNS:id": "-2023269", "alt_name": "Olukuta", "fixme": "no population estimate available, defaulted to village", "is_in:country": "Nigeria", "name": "Olokuta", "place": "village", "source": "GNS"}}, {"type": "node", "id": 501525005, "lat": 7.2, "lon": 3.733333, "tags": {"GNS:dsg_code": "PPL", "GNS:dsg_string": "populated place", "GNS:id": "-2001877", "alt_name": "Gbangboye", "fixme": "no population estimate available, defaulted to village", "is_in:country": "Nigeria", "name": "Bamgboye", "place": "village", "source": "GNS"}}, {"type": "node", "id": 501525268, "lat": 7.2, "lon": 3.516667, "tags": {"GNS:dsg_code": "PPL", "GNS:dsg_string": "populated place", "GNS:id": "-1997810", "alt_name": "Amushan", "fixme": "no population estimate available, defaulted to village", "is_in:country": "Nigeria", "name": "Agbontu", "place": "village", "source": "GNS"}}, {"type": "node", "id": 501525607, "lat": 7.183333, "lon": 3.533333, "tags": {"GNS:dsg_code": "PPL", "GNS:dsg_string": "populated place", "GNS:id": "-2020935", "alt_name": "Ntoji", "fixme": "no population estimate available, defaulted to village", "is_in:country": "Nigeria", "name": "Nitoji", "place": "village", "source": "GNS"}}, {"type": "node", "id": 501525919, "lat": 7.033333, "lon": 3.583333, "tags": {"GNS:dsg_code": "PPL", "GNS:dsg_string": "populated place", "GNS:id": "-2006266", "alt_name": "Eleyele", "fixme": "no population estimate available, defaulted to village", "is_in:country": "Nigeria", "name": "Eleiyele", "place": "village", "source": "GNS"}}, {"type": "node", "id": 501528778, "lat": 7.216667, "lon": 3.6, "tags": {"GNS:dsg_code": "PPL", "GNS:dsg_string": "populated place", "GNS:id": "-2010777", "alt_name": "Ogun", "fixme": "no population estimate available, defaulted to village", "is_in:country": "Nigeria", "name": "Idiomo", "place": "village", "source": "GNS"}}, {"type": "node", "id": 6961171181, "lat": 7.137023, "lon": 3.5497105}, {"type": "node", "id": 6961171182, "lat": 7.136991, "lon": 3.5496032}, {"type": "node", "id": 6961171183, "lat": 7.1372066, "lon": 3.5494101}, {"type": "node", "id": 6961171184, "lat": 7.1375073, "lon": 3.5493457}, {"type": "node", "id": 6961186585, "lat": 7.1377123, "lon": 3.5495281}, {"type": "node", "id": 6961186586, "lat": 7.1376085, "lon": 3.5499385}, {"type": "node", "id": 6961186587, "lat": 7.1374701, "lon": 3.5501021}, {"type": "node", "id": 6961186673, "lat": 7.1423884, "lon": 3.5583687}, {"type": "node", "id": 6961186674, "lat": 7.1419865, "lon": 3.558594}, {"type": "node", "id": 6961186675, "lat": 7.141558, "lon": 3.5586771}, {"type": "node", "id": 6961186676, "lat": 7.1413478, "lon": 3.5584974}, {"type": "node", "id": 6961186677, "lat": 7.1414223, "lon": 3.5580763}, {"type": "node", "id": 6961186678, "lat": 7.141236, "lon": 3.5577169}, {"type": "node", "id": 6961186679, "lat": 7.1413265, "lon": 3.557438}, {"type": "node", "id": 6961186680, "lat": 7.1417071, "lon": 3.5573146}, {"type": "node", "id": 6961186681, "lat": 7.1421808, "lon": 3.5575265}, {"type": "node", "id": 6961186682, "lat": 7.1425055, "lon": 3.5575908}, {"type": "node", "id": 6961186683, "lat": 7.1426439, "lon": 3.5580736}, {"type": "node", "id": 6961186684, "lat": 7.155932, "lon": 3.5822189}, {"type": "node", "id": 6961186685, "lat": 7.15627, "lon": 3.5823798}, {"type": "node", "id": 6961186686, "lat": 7.1565574, "lon": 3.5824207}, {"type": "node", "id": 6961186687, "lat": 7.1568555, "lon": 3.5822886}, {"type": "node", "id": 6961186688, "lat": 7.1569061, "lon": 3.5818675}, {"type": "node", "id": 6961186689, "lat": 7.1563099, "lon": 3.5815081}, {"type": "node", "id": 6961186690, "lat": 7.1560198, "lon": 3.5815671}, {"type": "node", "id": 6961186691, "lat": 7.1558096, "lon": 3.5817817}, {"type": "node", "id": 6961186692, "lat": 7.1557484, "lon": 3.5820204}, {"type": "node", "id": 6961186729, "lat": 7.1441875, "lon": 3.5746832}, {"type": "node", "id": 6961186730, "lat": 7.1442234, "lon": 3.5744472}, {"type": "node", "id": 6961186731, "lat": 7.1441409, "lon": 3.574124}, {"type": "node", "id": 6961186732, "lat": 7.1439027, "lon": 3.57401}, {"type": "node", "id": 6961186733, "lat": 7.1435874, "lon": 3.5740784}, {"type": "node", "id": 6961186734, "lat": 7.1434942, "lon": 3.5743037}, {"type": "node", "id": 6961186735, "lat": 7.1434596, "lon": 3.5746779}, {"type": "node", "id": 6961186736, "lat": 7.1435874, "lon": 3.5748482}, {"type": "node", "id": 6961186737, "lat": 7.1437005, "lon": 3.5749152}, {"type": "node", "id": 6961186738, "lat": 7.1440651, "lon": 3.5747597}, {"type": "node", "id": 6961186739, "lat": 7.1438641, "lon": 3.5749072}, {"type": "node", "id": 6961186758, "lat": 7.1364055, "lon": 3.5719568}, {"type": "node", "id": 6961186759, "lat": 7.1364933, "lon": 3.5720721}, {"type": "node", "id": 6961186760, "lat": 7.1366317, "lon": 3.5721847}, {"type": "node", "id": 6961186761, "lat": 7.1367515, "lon": 3.5722384}, {"type": "node", "id": 6961186762, "lat": 7.136834, "lon": 3.5723644}, {"type": "node", "id": 6961186763, "lat": 7.1369112, "lon": 3.5724181}, {"type": "node", "id": 6961186764, "lat": 7.1371334, "lon": 3.5724463}, {"type": "node", "id": 6961186765, "lat": 7.1372957, "lon": 3.5723189}, {"type": "node", "id": 6961186766, "lat": 7.137343, "lon": 3.5720365}, {"type": "node", "id": 6961186767, "lat": 7.1373876, "lon": 3.5717207}, {"type": "node", "id": 6961186768, "lat": 7.1371135, "lon": 3.5714793}, {"type": "node", "id": 6961186769, "lat": 7.1366717, "lon": 3.5714284}, {"type": "node", "id": 6961186770, "lat": 7.1364587, "lon": 3.5716483}, {"type": "node", "id": 6961186771, "lat": 7.1366291, "lon": 3.5715356}, {"type": "node", "id": 6961186790, "lat": 7.1340624, "lon": 3.5627673}, {"type": "node", "id": 6961186801, "lat": 7.1334779, "lon": 3.5627112}, {"type": "node", "id": 6961186802, "lat": 7.1336243, "lon": 3.562746}, {"type": "node", "id": 6961186803, "lat": 7.1338399, "lon": 3.562679}, {"type": "node", "id": 6961186804, "lat": 7.1341779, "lon": 3.5628131}, {"type": "node", "id": 6961186805, "lat": 7.1345765, "lon": 3.5627534}, {"type": "node", "id": 6961186806, "lat": 7.1347474, "lon": 3.562628}, {"type": "node", "id": 6961186807, "lat": 7.134806, "lon": 3.5623974}, {"type": "node", "id": 6961186808, "lat": 7.1344467, "lon": 3.561767}, {"type": "node", "id": 6961186809, "lat": 7.1343216, "lon": 3.5616705}, {"type": "node", "id": 6961186810, "lat": 7.1340049, "lon": 3.5617295}, {"type": "node", "id": 6961186811, "lat": 7.1339251, "lon": 3.5619709}, {"type": "node", "id": 6961186812, "lat": 7.1337707, "lon": 3.562105}, {"type": "node", "id": 6961186813, "lat": 7.1335099, "lon": 3.5624671}, {"type": "node", "id": 6961186814, "lat": 7.1316389, "lon": 3.5587093}, {"type": "node", "id": 6961186815, "lat": 7.131748, "lon": 3.5589373}, {"type": "node", "id": 6961186816, "lat": 7.1317294, "lon": 3.5591009}, {"type": "node", "id": 6961186817, "lat": 7.1316256, "lon": 3.5592431}, {"type": "node", "id": 6961186818, "lat": 7.1314632, "lon": 3.5593504}, {"type": "node", "id": 6961186819, "lat": 7.1312689, "lon": 3.5594201}, {"type": "node", "id": 6961186820, "lat": 7.1311944, "lon": 3.5593772}, {"type": "node", "id": 6961186821, "lat": 7.1310826, "lon": 3.558948}, {"type": "node", "id": 6961186822, "lat": 7.1312556, "lon": 3.5587737}, {"type": "node", "id": 6961186823, "lat": 7.1315777, "lon": 3.5586852}, {"type": "node", "id": 6961186824, "lat": 7.1310587, "lon": 3.5591063}, {"type": "node", "id": 6961186827, "lat": 7.1336722, "lon": 3.5621855}, {"type": "node", "id": 12638330357, "lat": 7.033543, "lon": 3.5540879, "tags": {"place": "village"}}, {"type": "way", "id": 743763912, "nodes": [6961186587, 6961186586, 6961186585, 6961171184, 6961171183, 6961171182, 6961171181, 6961186587], "tags": {"place": "village"}}, {"type": "way", "id": 743763916, "nodes": [6961186683, 6961186682, 6961186681, 6961186680, 6961186679, 6961186678, 6961186677, 6961186676, 6961186675, 6961186674, 6961186673, 6961186683], "tags": {"place": "village"}}, {"type": "way", "id": 743763917, "nodes": [6961186692, 6961186691, 6961186690, 6961186689, 6961186688, 6961186687, 6961186686, 6961186685, 6961186684, 6961186692], "tags": {"place": "village"}}, {"type": "way", "id": 743763919, "nodes": [6961186738, 6961186739, 6961186737, 6961186736, 6961186735, 6961186734, 6961186733, 6961186732, 6961186731, 6961186730, 6961186729, 6961186738], "tags": {"place": "village", "surface": "unpaved"}}, {"type": "way", "id": 743763921, "nodes": [6961186770, 6961186771, 6961186769, 6961186768, 6961186767, 6961186766, 6961186765, 6961186764, 6961186763, 6961186762, 6961186761, 6961186760, 6961186759, 6961186758, 6961186770], "tags": {"place": "village", "surface": "unpaved"}}, {"type": "way", "id": 743763924, "nodes": [6961186813, 6961186827, 6961186812, 6961186811, 6961186810, 6961186809, 6961186808, 6961186807, 6961186806, 6961186805, 6961186804, 6961186790, 6961186803, 6961186802, 6961186801, 6961186813], "tags": {"place": "village", "surface": "unpaved"}}, {"type": "way", "id": 743763925, "nodes": [6961186823, 6961186822, 6961186821, 6961186824, 6961186820, 6961186819, 6961186818, 6961186817, 6961186816, 6961186815, 6961186814, 6961186823], "tags": {"place": "village", "surface": "unpaved"}}]}