{"version": 0.6, "generator": "Overpass API 0.7.62.11 87bfad18", "osm3s": {"timestamp_osm_base": "2026-05-02T07:33:17Z", "copyright": "The data included in this document is from www.openstreetmap.org. The data is made available under ODbL."}, "elements": [{"type": "node", "id": 27565036, "lat": 7.8410537, "lon": 3.9315363, "tags": {"GNS:dsg_code": "PPL", "GNS:dsg_string": "populated place", "GNS:id": "-2024620", "is_in": "Nigeria", "is_in:country": "Nigeria", "name": "\u1ecc\u0300y\u1ecd\u0301", "name:de": "Oyo", "name:en": "Oyo", "name:ru": "\u041e\u0439\u043e", "name:yo": "\u1ecc\u0300y\u1ecd\u0301", "place": "city", "population": "736100", "source": "GNS", "source:name": "Perry-Casta\u00f1eda LibraryMap Collection", "wikidata": "Q1023703", "wikipedia": "en:Oyo,_Oyo_State"}}, {"type": "node", "id": 501350224, "lat": 7.9, "lon": 4.083333, "tags": {"GNS:dsg_code": "PPL", "GNS:dsg_string": "populated place", "GNS:id": "-2021844", "alt_name": "Odo Oba;Ile-Oba;Ie-Awbe", "fixme": "no population estimate available, defaulted to village", "is_in:country": "Nigeria", "name": "Odo Oba", "place": "village", "source": "GNS"}}, {"type": "node", "id": 501352538, "lat": 7.9162923, "lon": 4.1498179, "tags": {"GNS:dsg_code": "PPL", "GNS:dsg_string": "populated place", "GNS:id": "-2017349", "alt_name": "Agbedu", "fixme": "no population estimate available, defaulted to village", "is_in:country": "Nigeria", "name": "Lagbedu", "place": "village", "source": "GNS"}}, {"type": "node", "id": 501354314, "lat": 7.866667, "lon": 4.0, "tags": {"GNS:dsg_code": "PPL", "GNS:dsg_string": "populated place", "GNS:id": "-2022628", "alt_name": "Oke-Awmaw;Oke Omo", "fixme": "no population estimate available, defaulted to village", "is_in:country": "Nigeria", "name": "Oke Omo", "place": "village", "source": "GNS"}}, {"type": "node", "id": 501354960, "lat": 7.983333, "lon": 3.85, "tags": {"GNS:dsg_code": "PPL", "GNS:dsg_string": "populated place", "GNS:id": "-2022677", "country": "NG", "fixme": "no population estimate available, defaulted to village", "name": "Okikiola", "place": "village", "source": "GNS"}}, {"type": "node", "id": 501355572, "lat": 7.9686142, "lon": 3.9867739, "tags": {"GNS:dsg_code": "PPL", "GNS:dsg_string": "populated place", "GNS:id": "-2027220", "fixme": "no population estimate available, defaulted to village", "is_in:country": "Nigeria", "name": "Taiwo", "place": "village", "source": "GNS"}}, {"type": "node", "id": 501358017, "lat": 7.65, "lon": 4.116667, "tags": {"GNS:dsg_code": "PPL", "GNS:dsg_string": "populated place", "GNS:id": "-1998350", "alt_name": "Ajayi", "fixme": "no population estimate available, defaulted to village", "is_in:country": "Nigeria", "name": "Aje", "place": "village", "source": "GNS"}}, {"type": "node", "id": 501358245, "lat": 7.631944, "lon": 3.975278, "tags": {"GNS:dsg_code": "PPL", "GNS:dsg_string": "populated place", "GNS:id": "-2011521", "alt_name": "Ikoroku", "fixme": "no population estimate available, defaulted to village", "is_in:country": "Nigeria", "name": "Ikereku", "place": "village", "source": "GNS"}}, {"type": "node", "id": 501361111, "lat": 7.633333, "lon": 4.183333, "tags": {"GNS:dsg_code": "PPL", "GNS:dsg_string": "populated place", "GNS:id": "-2012908", "is_in:country": "Nigeria", "name": "Iwo", "place": "town", "source": "GNS", "wikidata": "Q1665608"}}, {"type": "node", "id": 501361386, "lat": 7.693611, "lon": 3.864722, "tags": {"GNS:dsg_code": "PPL", "GNS:dsg_string": "populated place", "GNS:id": "-1998701", "alt_name": "Akinbawla", "fixme": "no population estimate available, defaulted to village", "is_in:country": "Nigeria", "name": "Akinbola", "place": "village", "source": "GNS"}}, {"type": "node", "id": 501367226, "lat": 7.633333, "lon": 4.066667, "tags": {"GNS:dsg_code": "PPL", "GNS:dsg_string": "populated place", "GNS:id": "-1996744", "alt_name": "Osha", "fixme": "no population estimate available, defaulted to village", "is_in:country": "Nigeria", "name": "Aba Osa", "place": "village", "source": "GNS"}}, {"type": "node", "id": 501367328, "lat": 7.716667, "lon": 4.116667, "tags": {"GNS:dsg_code": "PPL", "GNS:dsg_string": "populated place", "GNS:id": "-2012083", "alt_name": "Ileko-Awba", "fixme": "no population estimate available, defaulted to village", "is_in:country": "Nigeria", "name": "Ileko", "place": "village", "source": "GNS"}}, {"type": "node", "id": 501372418, "lat": 7.85, "lon": 4.066667, "tags": {"GNS:dsg_code": "PPL", "GNS:dsg_string": "populated place", "GNS:id": "-2021845", "alt_name": "Odo Oba Ejemu;Odo-Oba;Odo-Awba", "fixme": "no population estimate available, defaulted to village", "is_in:country": "Nigeria", "name": "Odo-Oba", "place": "village", "source": "GNS"}}, {"type": "node", "id": 501380550, "lat": 7.7667866, "lon": 4.133341, "tags": {"GNS:dsg_code": "PPL", "GNS:dsg_string": "populated place", "GNS:id": "-2012628", "fixme": "no population estimate available, defaulted to village", "is_in:country": "Nigeria", "name": "Isero", "place": "village", "source": "GNS"}}, {"type": "node", "id": 501380953, "lat": 7.75, "lon": 3.883333, "tags": {"GNS:dsg_code": "PPL", "GNS:dsg_string": "populated place", "GNS:id": "-2012186", "alt_name": "Ile-Aje;Aje", "fixme": "no population estimate available, defaulted to village", "is_in:country": "Nigeria", "name": "Iluaje", "place": "village", "source": "GNS"}}, {"type": "node", "id": 501381359, "lat": 7.9609293, "lon": 3.8340196, "tags": {"GNS:dsg_code": "PPL", "GNS:dsg_string": "populated place", "GNS:id": "-2005874", "fixme": "position unclear; no population estimate available, defaulted to village", "is_in:country": "Nigeria", "name": "Egbeda", "place": "village", "source": "GNS"}}, {"type": "node", "id": 501383566, "lat": 7.783333, "lon": 3.95, "tags": {"GNS:dsg_code": "PPL", "GNS:dsg_string": "populated place", "GNS:id": "-1998724", "alt_name": "Akinmarin", "fixme": "no population estimate available, defaulted to village", "is_in:country": "Nigeria", "name": "Akinmorin", "place": "village", "source": "GNS"}}, {"type": "node", "id": 501417681, "lat": 7.801807, "lon": 4.0568235, "tags": {"GNS:dsg_code": "PPL", "GNS:dsg_string": "populated place", "GNS:id": "-1998220", "fixme": "no population estimate available, defaulted to village", "name": "Aiyekale", "place": "village", "source": "GNS"}}, {"type": "node", "id": 501423815, "lat": 7.9771148, "lon": 3.8368172, "tags": {"GNS:dsg_code": "PPL", "GNS:dsg_string": "populated place", "GNS:id": "-2019872", "fixme": "no population estimate available, defaulted to village", "is_in:country": "Nigeria", "name": "Monija", "place": "village", "source": "GNS"}}, {"type": "node", "id": 501424034, "lat": 7.7335882, "lon": 4.0650255, "tags": {"GNS:dsg_code": "PPL", "GNS:dsg_string": "populated place", "GNS:id": "-2015511", "fixme": "no population estimate available, defaulted to village", "is_in:country": "Nigeria", "name": "Kiyeseni", "place": "village", "source": "GNS"}}, {"type": "node", "id": 501432799, "lat": 7.65, "lon": 4.05, "tags": {"GNS:dsg_code": "PPL", "GNS:dsg_string": "populated place", "GNS:id": "-2000667", "alt_name": "Ashipa", "fixme": "no population estimate available, defaulted to village", "is_in:country": "Nigeria", "name": "Asipa", "place": "village", "source": "GNS"}}, {"type": "node", "id": 501447271, "lat": 7.631111, "lon": 3.848889, "tags": {"GNS:dsg_code": "PPL", "GNS:dsg_string": "populated place", "GNS:id": "-2011370", "alt_name": "Ijaiye;Ijako-Orile;Ijaiye Orile", "fixme": "no population estimate available, defaulted to village", "is_in:country": "Nigeria", "name": "Ijaiye", "place": "village", "source": "GNS"}}, {"type": "node", "id": 501465413, "lat": 7.75, "lon": 4.133333, "tags": {"GNS:dsg_code": "PPL", "GNS:dsg_string": "populated place", "GNS:id": "-2012627", "alt_name": "Iseru", "fixme": "no population estimate available, defaulted to village", "is_in:country": "Nigeria", "name": "Isero", "place": "village", "source": "GNS"}}, {"type": "node", "id": 501471641, "lat": 7.816667, "lon": 4.066667, "tags": {"GNS:dsg_code": "PPL", "GNS:dsg_string": "populated place", "GNS:id": "-2003416", "alt_name": "Burdimaw", "fixme": "no population estimate available, defaulted to village", "is_in:country": "Nigeria", "name": "Buraimo", "place": "village", "source": "GNS"}}, {"type": "node", "id": 501473201, "lat": 7.716667, "lon": 3.983333, "tags": {"GNS:dsg_code": "PPL", "GNS:dsg_string": "populated place", "GNS:id": "-2000543", "alt_name": "Asalu", "fixme": "no population estimate available, defaulted to village", "is_in:country": "Nigeria", "name": "Asalu Obose", "place": "village", "source": "GNS"}}, {"type": "node", "id": 501473533, "lat": 7.7, "lon": 3.833333, "tags": {"GNS:dsg_code": "PPL", "GNS:dsg_string": "populated place", "GNS:id": "-2006316", "alt_name": "Ellemmon", "fixme": "no population estimate available, defaulted to village", "is_in:country": "Nigeria", "name": "Elemo", "place": "village", "source": "GNS"}}, {"type": "node", "id": 501479757, "lat": 7.916667, "lon": 4.166667, "tags": {"GNS:dsg_code": "PPL", "GNS:dsg_string": "populated place", "GNS:id": "-2025024", "alt_name": "Pawntola", "fixme": "no population estimate available, defaulted to village", "is_in:country": "Nigeria", "name": "Pontela", "place": "village", "source": "GNS"}}, {"type": "node", "id": 501491108, "lat": 7.7161726, "lon": 4.0501663, "tags": {"GNS:dsg_code": "PPL", "GNS:dsg_string": "populated place", "GNS:id": "-1998770", "fixme": "no population estimate available, defaulted to village", "is_in:country": "Nigeria", "name": "Akoda", "place": "village", "source": "GNS"}}, {"type": "node", "id": 501491450, "lat": 7.653889, "lon": 3.864444, "tags": {"GNS:dsg_code": "PPL", "GNS:dsg_string": "populated place", "GNS:id": "-1998494", "alt_name": "Ajawbaw", "fixme": "no population estimate available, defaulted to village", "is_in:country": "Nigeria", "name": "Ajobo", "place": "village", "source": "GNS"}}, {"type": "node", "id": 501491961, "lat": 7.9, "lon": 3.833333, "tags": {"GNS:dsg_code": "PPL", "GNS:dsg_string": "populated place", "GNS:id": "-2001810", "fixme": "no population estimate available, defaulted to village", "name": "Balogun", "place": "village", "source": "GNS"}}, {"type": "node", "id": 501494740, "lat": 7.662222, "lon": 3.859722, "tags": {"GNS:dsg_code": "PPL", "GNS:dsg_string": "populated place", "GNS:id": "-2006997", "alt_name": "Fagunwa", "fixme": "no population estimate available, defaulted to village", "is_in:country": "Nigeria", "name": "Fagunja", "place": "village", "source": "GNS"}}, {"type": "node", "id": 501495021, "lat": 7.733333, "lon": 4.033333, "tags": {"GNS:dsg_code": "PPL", "GNS:dsg_string": "populated place", "GNS:id": "-2017404", "alt_name": "Lakara", "fixme": "no population estimate available, defaulted to village", "is_in:country": "Nigeria", "name": "Laka", "place": "village", "source": "GNS"}}, {"type": "node", "id": 501498995, "lat": 7.659167, "lon": 3.945278, "tags": {"GNS:dsg_code": "PPL", "GNS:dsg_string": "populated place", "GNS:id": "-2023140", "alt_name": "Awlawde", "fixme": "no population estimate available, defaulted to village", "is_in:country": "Nigeria", "name": "Olode", "place": "village", "source": "GNS"}}, {"type": "node", "id": 501499135, "lat": 7.9507225, "lon": 3.833333, "tags": {"GNS:dsg_code": "PPL", "GNS:dsg_string": "populated place", "GNS:id": "-2030879", "fixme": "no population estimate available, defaulted to village", "is_in:country": "Nigeria", "name": "Wosidasa", "place": "village", "source": "GNS"}}, {"type": "node", "id": 501503128, "lat": 7.8015944, "lon": 4.0408376, "tags": {"GNS:dsg_string": "populated place", "GNS:id": "-2009602", "fixme": "no population estimate available, defaulted to village", "name": "Gudugbu Orile", "place": "village", "source": "GNS"}}, {"type": "node", "id": 501504579, "lat": 7.711111, "lon": 3.822222, "tags": {"GNS:dsg_code": "PPL", "GNS:dsg_string": "populated place", "GNS:id": "-2023817", "alt_name": "Oniyege", "fixme": "no population estimate available, defaulted to village", "is_in:country": "Nigeria", "name": "Oniyangi", "place": "village", "source": "GNS"}}, {"type": "node", "id": 501516135, "lat": 7.9811974, "lon": 4.0315413, "tags": {"GNS:dsg_code": "PPL", "GNS:dsg_string": "populated place", "GNS:id": "-2023776", "fixme": "no population estimate available, defaulted to village", "is_in:country": "Nigeria", "name": "Onire", "place": "village", "source": "GNS"}}, {"type": "node", "id": 501516514, "lat": 7.75, "lon": 4.15, "tags": {"GNS:dsg_code": "PPL", "GNS:dsg_string": "populated place", "GNS:id": "-2021464", "alt_name": "Awba-Mowo", "fixme": "no population estimate available, defaulted to village", "is_in:country": "Nigeria", "name": "Obamoro", "place": "village", "source": "GNS"}}, {"type": "node", "id": 501517047, "lat": 7.670278, "lon": 3.910278, "tags": {"GNS:dsg_code": "PPL", "GNS:dsg_string": "populated place", "GNS:id": "-2019948", "alt_name": "Mawtunde", "fixme": "no population estimate available, defaulted to village", "is_in:country": "Nigeria", "name": "Motunde", "place": "village", "source": "GNS"}}, {"type": "node", "id": 501517435, "lat": 7.8, "lon": 3.9, "tags": {"GNS:dsg_code": "PPL", "GNS:dsg_string": "populated place", "GNS:id": "-2012173", "fixme": "no population estimate available, defaulted to village", "is_in:country": "Nigeria", "name": "Ilora", "name:ru": "\u0418\u043b\u043e\u0440\u0430", "place": "village", "source": "GNS"}}, {"type": "node", "id": 501517498, "lat": 7.7475, "lon": 3.918056, "tags": {"GNS:dsg_code": "PPL", "GNS:dsg_string": "populated place", "GNS:id": "-1998077", "alt_name": "Aguwaw", "fixme": "no population estimate available, defaulted to village", "is_in:country": "Nigeria", "name": "Aguo", "place": "village", "source": "GNS"}}, {"type": "node", "id": 501518296, "lat": 8.0003771, "lon": 3.8307232, "tags": {"GNS:dsg_code": "PPL", "GNS:dsg_string": "populated place", "GNS:id": "-2011140", "fixme": "no population estimate available, defaulted to village", "is_in:country": "Nigeria", "name": "Igbo Olosan", "place": "village", "source": "GNS"}}, {"type": "node", "id": 501521589, "lat": 7.65, "lon": 4.05, "tags": {"GNS:dsg_code": "PPL", "GNS:dsg_string": "populated place", "GNS:id": "-2023511", "alt_name": "Ikolupaw", "fixme": "no population estimate available, defaulted to village", "is_in:country": "Nigeria", "name": "Olupo", "place": "village", "source": "GNS"}}, {"type": "node", "id": 501522702, "lat": 7.683333, "lon": 4.066667, "tags": {"GNS:dsg_code": "PPL", "GNS:dsg_string": "populated place", "GNS:id": "-2023508", "alt_name": "Olupwaw", "fixme": "no population estimate available, defaulted to village", "is_in:country": "Nigeria", "name": "Olupan", "place": "village", "source": "GNS"}}, {"type": "node", "id": 501524519, "lat": 7.833333, "lon": 4.1, "tags": {"GNS:dsg_code": "PPL", "GNS:dsg_string": "populated place", "GNS:id": "-2024551", "alt_name": "Ile-owo", "fixme": "no population estimate available, defaulted to village", "is_in:country": "Nigeria", "name": "Owu", "place": "village", "source": "GNS"}}, {"type": "node", "id": 501524549, "lat": 7.933333, "lon": 4.133333, "tags": {"GNS:dsg_code": "PPL", "GNS:dsg_string": "populated place", "GNS:id": "-2022478", "alt_name": "Ojutaye", "fixme": "no population estimate available, defaulted to village", "is_in:country": "Nigeria", "name": "Ojutaiye", "place": "village", "source": "GNS"}}, {"type": "node", "id": 501524670, "lat": 7.651389, "lon": 3.888889, "tags": {"GNS:dsg_code": "PPL", "GNS:dsg_string": "populated place", "GNS:id": "-2024019", "alt_name": "Awretu", "fixme": "no population estimate available, defaulted to village", "is_in:country": "Nigeria", "name": "Oretu", "place": "village", "source": "GNS"}}, {"type": "node", "id": 501524949, "lat": 8.016667, "lon": 3.833333, "tags": {"GNS:dsg_code": "PPL", "GNS:dsg_string": "populated place", "GNS:id": "-2008303", "fixme": "no population estimate available, defaulted to village", "name": "Gbajigbo", "name:ru": "\u0413\u0431\u0430\u0434\u0436\u0438\u0433\u0431\u043e", "place": "village", "source": "GNS"}}, {"type": "node", "id": 501525913, "lat": 7.668333, "lon": 3.893333, "tags": {"GNS:dsg_code": "PPL", "GNS:dsg_string": "populated place", "GNS:id": "-2007016", "alt_name": "Fakorede", "fixme": "no population estimate available, defaulted to village", "is_in:country": "Nigeria", "name": "Fakore", "place": "village", "source": "GNS"}}, {"type": "node", "id": 501526710, "lat": 7.6403794, "lon": 3.9247507, "tags": {"GNS:dsg_code": "PPL", "GNS:dsg_string": "populated place", "GNS:id": "-1998716", "fixme": "no population estimate available, defaulted to village", "is_in:country": "Nigeria", "name": "Akinkunmi", "place": "village", "source": "GNS"}}, {"type": "node", "id": 501528029, "lat": 7.666667, "lon": 4.05, "tags": {"GNS:dsg_code": "PPL", "GNS:dsg_string": "populated place", "GNS:id": "-1998183", "alt_name": "Arapate", "fixme": "no population estimate available, defaulted to village", "is_in:country": "Nigeria", "name": "Aipate", "place": "village", "source": "GNS"}}, {"type": "node", "id": 501528200, "lat": 7.7669381, "lon": 4.1333706, "tags": {"GNS:dsg_code": "PPL", "GNS:dsg_string": "populated place", "GNS:id": "-2012628", "fixme": "no population estimate available, defaulted to village", "is_in:country": "Nigeria", "name": "Ishero", "place": "village", "source": "GNS"}}, {"type": "node", "id": 501528647, "lat": 8.0015762, "lon": 3.9692879, "tags": {"GNS:dsg_code": "PPL", "GNS:dsg_string": "populated place", "GNS:id": "-1999262", "fixme": "no population estimate available, defaulted to village", "is_in:country": "Nigeria", "name": "Alaroka", "place": "village", "source": "GNS"}}]}