{"version": 0.6, "generator": "Overpass API 0.7.62.11 87bfad18", "osm3s": {"timestamp_osm_base": "2026-05-02T07:34:18Z", "copyright": "The data included in this document is from www.openstreetmap.org. The data is made available under ODbL."}, "elements": [{"type": "node", "id": 501334795, "lat": 7.816667, "lon": 4.4, "tags": {"GNS:dsg_code": "PPL", "GNS:dsg_string": "populated place", "GNS:id": "-1997001", "alt_name": "Abudu", "fixme": "no population estimate available, defaulted to village", "is_in:country": "Nigeria", "name": "Abudo", "place": "village", "source": "GNS"}}, {"type": "node", "id": 501356728, "lat": 7.9679162, "lon": 4.5417868, "tags": {"GNS:dsg_code": "PPL", "GNS:dsg_string": "populated place", "GNS:id": "-2012114", "alt_name": "Iliye", "fixme": "no population estimate available, defaulted to village", "is_in:country": "Nigeria", "name": "Ilie", "place": "town", "source": "GNS"}}, {"type": "node", "id": 501358006, "lat": 7.7836849, "lon": 4.3368124, "tags": {"GNS:dsg_code": "PPL", "GNS:dsg_string": "populated place", "GNS:id": "-1998359", "fixme": "no population estimate available, defaulted to village", "is_in:country": "Nigeria", "name": "Ajebandele", "place": "village", "source": "GNS"}}, {"type": "node", "id": 501371219, "lat": 7.933333, "lon": 4.266667, "tags": {"GNS:dsg_code": "PPL", "GNS:dsg_string": "populated place", "GNS:id": "-1998084", "alt_name": "Aguredo", "fixme": "no population estimate available, defaulted to village", "is_in:country": "Nigeria", "name": "Agurodo", "place": "village", "source": "GNS"}}, {"type": "node", "id": 501408148, "lat": 7.866667, "lon": 4.2, "tags": {"GNS:dsg_code": "PPL", "GNS:dsg_string": "populated place", "GNS:id": "-2010701", "alt_name": "Dewure", "fixme": "no population estimate available, defaulted to village", "is_in:country": "Nigeria", "name": "Ideure", "place": "village", "source": "GNS"}}, {"type": "node", "id": 501429659, "lat": 7.8999894, "lon": 4.3167086, "tags": {"GNS:dsg_code": "PPL", "GNS:dsg_string": "populated place", "GNS:id": "-2006025", "fixme": "no population estimate available, defaulted to village", "name": "Ejigbo", "place": "city", "source": "GNS", "wikidata": "Q5350128"}}, {"type": "node", "id": 501431850, "lat": 7.833333, "lon": 4.216667, "tags": {"GNS:dsg_code": "PPL", "GNS:dsg_string": "populated place", "GNS:id": "-1998276", "alt_name": "Ajaga-Ase", "fixme": "no population estimate available, defaulted to village", "is_in:country": "Nigeria", "name": "Ajagase", "place": "village", "source": "GNS"}}, {"type": "node", "id": 501450856, "lat": 7.75, "lon": 4.233333, "tags": {"GNS:dsg_code": "PPL", "GNS:dsg_string": "populated place", "GNS:id": "-2002850", "alt_name": "Bode-Olle;Ibode-Osi;Bode-Olla;Ibede-Osi", "fixme": "no population estimate available, defaulted to village", "is_in:country": "Nigeria", "name": "Ibode-Osi", "place": "village", "source": "GNS"}}, {"type": "node", "id": 501451922, "lat": 7.8756876, "lon": 4.3457928, "tags": {"GNS:dsg_code": "PPL", "GNS:dsg_string": "populated place", "GNS:id": "-2011124", "fixme": "no population estimate available, defaulted to village", "name": "Igbon", "place": "village", "source": "GNS"}}, {"type": "node", "id": 501452124, "lat": 7.983333, "lon": 4.35, "tags": {"GNS:dsg_code": "PPL", "GNS:dsg_string": "populated place", "GNS:id": "-2024049", "fixme": "no population estimate available, defaulted to village", "is_in:country": "Nigeria", "name": "Origi", "place": "village", "source": "GNS", "wikidata": "Q56245406", "wikipedia": "en:Origi"}}, {"type": "node", "id": 501471599, "lat": 7.716667, "lon": 4.233333, "tags": {"GNS:dsg_code": "PPL", "GNS:dsg_string": "populated place", "GNS:id": "-2011540", "alt_name": "Ikire", "fixme": "no population estimate available, defaulted to village", "is_in:country": "Nigeria", "name": "Ikire Ile", "place": "village", "source": "GNS"}}, {"type": "node", "id": 501489431, "lat": 8.016667, "lon": 4.466667, "tags": {"GNS:dsg_code": "PPL", "GNS:dsg_string": "populated place", "GNS:id": "-2022410", "alt_name": "Awjennike", "fixme": "no population estimate available, defaulted to village", "is_in:country": "Nigeria", "name": "Ojenike", "place": "village", "source": "GNS"}}, {"type": "node", "id": 501491930, "lat": 7.683333, "lon": 4.283333, "tags": {"GNS:dsg_code": "PPL", "GNS:dsg_string": "populated place", "GNS:id": "-2000549", "alt_name": "Ashamu", "fixme": "no population estimate available, defaulted to village", "is_in:country": "Nigeria", "name": "Asamu", "place": "village", "source": "GNS"}}, {"type": "node", "id": 501492595, "lat": 7.983333, "lon": 4.316667, "tags": {"GNS:dsg_code": "PPL", "GNS:dsg_string": "populated place", "GNS:id": "-2018834", "alt_name": "Mumi", "fixme": "no population estimate available, defaulted to village", "is_in:country": "Nigeria", "name": "Mami", "place": "village", "source": "GNS"}}, {"type": "node", "id": 501493316, "lat": 7.833333, "lon": 4.316667, "tags": {"GNS:dsg_code": "PPL", "GNS:dsg_string": "populated place", "GNS:id": "-2011435", "alt_name": "Ijimaba", "fixme": "no population estimate available, defaulted to village", "is_in:country": "Nigeria", "name": "Ijimoba", "place": "village", "source": "GNS"}}, {"type": "node", "id": 501493396, "lat": 7.9, "lon": 4.266667, "tags": {"GNS:dsg_code": "PPL", "GNS:dsg_string": "populated place", "GNS:id": "-2019170", "alt_name": "Mashifa", "fixme": "no population estimate available, defaulted to village", "is_in:country": "Nigeria", "name": "Masifa", "place": "village", "source": "GNS"}}, {"type": "node", "id": 501493404, "lat": 7.783333, "lon": 4.2, "tags": {"GNS:dsg_code": "PPL", "GNS:dsg_string": "populated place", "GNS:id": "-2012096", "alt_name": "Ile Ogo;Ile-Awgaw", "fixme": "no population estimate available, defaulted to village", "is_in:country": "Nigeria", "name": "Ile-Awgaw", "place": "village", "source": "GNS"}}, {"type": "node", "id": 501494951, "lat": 7.6491834, "lon": 4.2506952, "tags": {"GNS:dsg_code": "PPL", "GNS:dsg_string": "populated place", "GNS:id": "-2006281", "fixme": "no population estimate available, defaulted to village", "is_in:country": "Nigeria", "name": "Eleke", "place": "village", "source": "GNS"}}, {"type": "node", "id": 501501022, "lat": 7.866667, "lon": 4.266667, "tags": {"GNS:dsg_code": "PPL", "GNS:dsg_string": "populated place", "GNS:id": "-2012721", "alt_name": "Ishudunrin", "fixme": "no population estimate available, defaulted to village", "is_in:country": "Nigeria", "name": "Isundunrin", "place": "village", "source": "GNS"}}, {"type": "node", "id": 501504598, "lat": 7.7040744, "lon": 4.2526744, "tags": {"GNS:dsg_code": "PPL", "GNS:dsg_string": "populated place", "GNS:id": "-2022007", "alt_name": "Awgbagba", "is_in:country": "Nigeria", "name": "Ogbagba", "place": "town", "source": "GNS"}}, {"type": "node", "id": 501508970, "lat": 8.016667, "lon": 4.3, "tags": {"GNS:dsg_code": "PPL", "GNS:dsg_string": "populated place", "GNS:id": "-2019269", "alt_name": "Mayin", "fixme": "no population estimate available, defaulted to village", "is_in:country": "Nigeria", "name": "Mayin", "place": "village", "source": "GNS"}}, {"type": "node", "id": 501509979, "lat": 8.0, "lon": 4.3, "tags": {"GNS:dsg_code": "PPL", "GNS:dsg_string": "populated place", "GNS:id": "-2012097", "alt_name": "Ile-Awgaw", "fixme": "no population estimate available, defaulted to village", "is_in:country": "Nigeria", "name": "Ile Ogo", "place": "village", "source": "GNS"}}, {"type": "node", "id": 501516516, "lat": 7.75, "lon": 4.316667, "tags": {"GNS:dsg_code": "PPL", "GNS:dsg_string": "populated place", "GNS:id": "-2026947", "alt_name": "Shawmawgbe", "fixme": "no population estimate available, defaulted to village", "is_in:country": "Nigeria", "name": "Songbe", "place": "village", "source": "GNS"}}, {"type": "node", "id": 501516594, "lat": 7.95, "lon": 4.283333, "tags": {"GNS:dsg_code": "PPL", "GNS:dsg_string": "populated place", "GNS:id": "-2023106", "alt_name": "Awla", "fixme": "no population estimate available, defaulted to village", "is_in:country": "Nigeria", "name": "Olla", "place": "village", "source": "GNS"}}, {"type": "node", "id": 501517082, "lat": 7.816667, "lon": 4.283333, "tags": {"GNS:dsg_code": "PPL", "GNS:dsg_string": "populated place", "GNS:id": "-2012067", "addr:city": "Ilawo", "addr:street": "Iwo - Ejigbo Road", "fixme": "no population estimate available, defaulted to village", "is_in:country": "Nigeria", "name": "Ilawo", "place": "village", "population": "10000", "source": "GNS"}}, {"type": "node", "id": 501518583, "lat": 7.966667, "lon": 4.216667, "tags": {"GNS:dsg_code": "PPL", "GNS:dsg_string": "populated place", "GNS:id": "-2006675", "alt_name": "Eyeshada", "fixme": "no population estimate available, defaulted to village", "is_in:country": "Nigeria", "name": "Esade", "place": "village", "source": "GNS"}}, {"type": "node", "id": 501522402, "lat": 7.783333, "lon": 4.233333, "tags": {"GNS:dsg_code": "PPL", "GNS:dsg_string": "populated place", "GNS:id": "-2000514", "alt_name": "Asha", "fixme": "no population estimate available, defaulted to village", "is_in:country": "Nigeria", "name": "Asa", "place": "village", "source": "GNS"}}, {"type": "node", "id": 501525477, "lat": 7.916667, "lon": 4.283333, "tags": {"GNS:dsg_code": "PPL", "GNS:dsg_string": "populated place", "GNS:id": "-2012694", "alt_name": "Ishoko", "fixme": "no population estimate available, defaulted to village", "is_in:country": "Nigeria", "name": "Isoko", "place": "village", "source": "GNS"}}, {"type": "node", "id": 501528450, "lat": 7.783333, "lon": 4.366667, "tags": {"GNS:dsg_code": "PPL", "GNS:dsg_string": "populated place", "GNS:id": "-2012469", "alt_name": "Agberi", "fixme": "no population estimate available, defaulted to village", "is_in:country": "Nigeria", "name": "Iragberi", "place": "village", "source": "GNS"}}, {"type": "node", "id": 501528613, "lat": 8.016667, "lon": 4.216667, "tags": {"GNS:dsg_code": "PPL", "GNS:dsg_string": "populated place", "GNS:id": "-1998351", "alt_name": "Bemiro", "fixme": "no population estimate available, defaulted to village", "is_in:country": "Nigeria", "name": "Aje", "place": "village", "source": "GNS"}}, {"type": "node", "id": 501528690, "lat": 7.7858679, "lon": 4.3220111, "tags": {"GNS:dsg_code": "PPL", "GNS:dsg_string": "populated place", "GNS:id": "-2012076", "fixme": "no population estimate available, defaulted to village", "is_in:country": "Nigeria", "name": "Ilegun", "place": "village", "source": "GNS"}}, {"type": "node", "id": 3402048816, "lat": 7.88331, "lon": 4.3436395}, {"type": "node", "id": 3499991473, "lat": 7.7935397, "lon": 4.3211474}, {"type": "node", "id": 3499991474, "lat": 7.7950704, "lon": 4.3265333}, {"type": "node", "id": 3499991475, "lat": 7.7853445, "lon": 4.3285125}, {"type": "node", "id": 3499991476, "lat": 7.7833394, "lon": 4.3237035}, {"type": "node", "id": 3499991477, "lat": 7.7818953, "lon": 4.3195139}, {"type": "node", "id": 3499991478, "lat": 7.7852118, "lon": 4.3163811}, {"type": "node", "id": 3499991479, "lat": 7.7907335, "lon": 4.3170704}, {"type": "node", "id": 3761718606, "lat": 7.8269566, "lon": 4.3427061, "tags": {"name": "Aato", "place": "town"}}, {"type": "node", "id": 3761754599, "lat": 7.8297201, "lon": 4.3404745}, {"type": "node", "id": 3761754600, "lat": 7.8303366, "lon": 4.3428348}, {"type": "node", "id": 3761754601, "lat": 7.825341, "lon": 4.3464826}, {"type": "node", "id": 3761754602, "lat": 7.8215996, "lon": 4.3427704}, {"type": "node", "id": 3761754603, "lat": 7.8267015, "lon": 4.3382}, {"type": "node", "id": 3762240435, "lat": 7.7932421, "lon": 4.3331851}, {"type": "node", "id": 3762240436, "lat": 7.7948153, "lon": 4.329473}, {"type": "node", "id": 3762240437, "lat": 7.7890224, "lon": 4.3369239}, {"type": "node", "id": 3794518045, "lat": 7.7850827, "lon": 4.3306129, "tags": {"name": "Olodo", "place": "village", "population": "20"}}, {"type": "node", "id": 3794518046, "lat": 7.7829567, "lon": 4.3338959}, {"type": "node", "id": 3794518047, "lat": 7.7789598, "lon": 4.3298404}, {"type": "node", "id": 3869917569, "lat": 7.8357643, "lon": 4.4060815, "tags": {"name": "Alaasan", "place": "village"}}, {"type": "node", "id": 3869917570, "lat": 7.8676915, "lon": 4.357952, "tags": {"name": "Olosimo", "place": "village"}}, {"type": "node", "id": 5179238997, "lat": 7.8484008, "lon": 4.3439595, "tags": {"name": "Osunfiade", "place": "village", "population": "50"}}, {"type": "node", "id": 5179250472, "lat": 7.8607058, "lon": 4.3465677, "tags": {"name": "Olori", "place": "village"}}, {"type": "node", "id": 5233730453, "lat": 7.879985, "lon": 4.3399608}, {"type": "node", "id": 5233730454, "lat": 7.8790896, "lon": 4.3392267}, {"type": "node", "id": 5233730455, "lat": 7.8770518, "lon": 4.3395317}, {"type": "node", "id": 5233730456, "lat": 7.8728007, "lon": 4.3420851}, {"type": "node", "id": 5233730457, "lat": 7.8712402, "lon": 4.3429472}, {"type": "node", "id": 5233730458, "lat": 7.8690954, "lon": 4.3442609}, {"type": "node", "id": 5233730459, "lat": 7.8677782, "lon": 4.3475711}, {"type": "node", "id": 5233730460, "lat": 7.8666685, "lon": 4.3526101}, {"type": "node", "id": 5233730461, "lat": 7.8699844, "lon": 4.3556678}, {"type": "node", "id": 5233730462, "lat": 7.8746712, "lon": 4.3559575}, {"type": "node", "id": 5233730463, "lat": 7.8810052, "lon": 4.3530822}, {"type": "node", "id": 5233730464, "lat": 7.88261, "lon": 4.3463338}, {"type": "node", "id": 12207147784, "lat": 7.825145, "lon": 4.3395757}, {"type": "node", "id": 12207152212, "lat": 7.8252324, "lon": 4.3395008}, {"type": "way", "id": 343082243, "nodes": [3499991473, 3499991474, 3762240436, 3762240435, 3762240437, 3499991475, 3499991476, 3499991477, 3499991478, 3499991479, 3499991473], "tags": {"landuse": "residential", "name": "Ilegun", "place": "village"}}, {"type": "way", "id": 372623496, "nodes": [3761754599, 3761754600, 3761754601, 3761754602, 12207147784, 12207152212, 3761754603, 3761754599], "tags": {"addr:city": "Aato", "addr:street": "Ejigbo - Awo Road", "landuse": "residential", "name": "Aato", "place": "town"}}, {"type": "way", "id": 376092766, "nodes": [3499991475, 3762240437, 3794518046, 3794518047, 3499991476, 3499991475], "tags": {"landuse": "residential", "name": "Olodo", "place": "village", "population": "20"}}, {"type": "way", "id": 541185178, "nodes": [5233730453, 5233730454, 5233730455, 5233730456, 5233730457, 5233730458, 5233730459, 5233730460, 5233730461, 5233730462, 5233730463, 5233730464, 3402048816, 5233730453], "tags": {"addr:city": "Igbon", "addr:street": "Ejigbo - Ede Road", "name": "Igbon", "place": "village"}}]}