{"version": 0.6, "generator": "Overpass API 0.7.62.11 87bfad18", "osm3s": {"timestamp_osm_base": "2026-05-02T07:33:17Z", "copyright": "The data included in this document is from www.openstreetmap.org. The data is made available under ODbL."}, "elements": [{"type": "node", "id": 501330380, "lat": 6.8477165, "lon": 3.6440551, "tags": {"GNS:dsg_code": "PPL", "GNS:dsg_string": "populated place", "GNS:id": "-2026411", "fixme": "no population estimate available, defaulted to village", "is_in:country": "Nigeria", "name": "Sagamu", "name:ru": "\u0428\u0430\u0433\u0430\u043c\u0443", "place": "city", "source": "GNS", "wikidata": "Q2276423"}}, {"type": "node", "id": 501397450, "lat": 6.6150503, "lon": 3.467433, "tags": {"GNS:dsg_code": "PPL", "GNS:dsg_string": "populated place", "GNS:id": "-2018590", "fixme": "no population estimate available, defaulted to village", "is_in:country": "Nigeria", "name": "Majidun", "place": "village", "source": "GNS"}}, {"type": "node", "id": 501431863, "lat": 6.792887, "lon": 3.572013, "tags": {"GNS:dsg_code": "PPL", "GNS:dsg_string": "populated place", "GNS:id": "10281496", "addr:street": "Sagamu Road", "fixme": "no population estimate available, defaulted to village", "is_in:country": "Nigeria", "name": "Konigbagbe", "place": "village", "source": "GNS"}}, {"type": "node", "id": 501440142, "lat": 6.6169281, "lon": 3.4682677, "tags": {"GNS:dsg_code": "PPL", "GNS:dsg_string": "populated place", "GNS:id": "-2023190", "fixme": "no population estimate available, defaulted to village", "is_in:country": "Nigeria", "name": "Ologode", "place": "village", "source": "GNS"}}, {"type": "node", "id": 501449117, "lat": 6.783333, "lon": 3.45, "tags": {"GNS:dsg_code": "PPL", "GNS:dsg_string": "populated place", "GNS:id": "-2024212", "alt_name": "Osheshe", "country": "Nigeria", "fixme": "no population estimate available, defaulted to village", "name": "Osese", "place": "village", "source": "GNS"}}, {"type": "node", "id": 501485345, "lat": 6.6674225, "lon": 3.489338, "tags": {"GNS:dsg_code": "PPL", "GNS:dsg_string": "populated place", "GNS:id": "48487", "fixme": "no population estimate available, defaulted to village", "name": "Agbede", "place": "village", "source": "GNS"}}, {"type": "node", "id": 501501588, "lat": 6.6661065, "lon": 3.4643796, "tags": {"GNS:dsg_code": "PPL", "GNS:dsg_string": "populated place", "GNS:id": "-2012640", "fixme": "no population estimate available, defaulted to village", "is_in:country": "Nigeria", "name": "Ishawo", "place": "village", "source": "GNS"}}]}