{"version": 0.6, "generator": "Overpass API 0.7.62.11 87bfad18", "osm3s": {"timestamp_osm_base": "2026-05-02T07:33:17Z", "copyright": "The data included in this document is from www.openstreetmap.org. The data is made available under ODbL."}, "elements": [{"type": "node", "id": 501334174, "lat": 7.2975619, "lon": 3.6126007, "tags": {"GNS:dsg_code": "PPL", "GNS:dsg_string": "populated place", "GNS:id": "-2023157", "fixme": "no population estimate available, defaulted to village", "is_in:country": "Nigeria", "name": "Olodo", "place": "village", "source": "GNS"}}, {"type": "node", "id": 501353680, "lat": 7.25, "lon": 3.6, "tags": {"GNS:dsg_code": "PPL", "GNS:dsg_string": "populated place", "GNS:id": "-2017828", "alt_name": "Jagemo", "fixme": "no population estimate available, defaulted to village", "is_in:country": "Nigeria", "name": "Lisa", "place": "village", "source": "GNS"}}, {"type": "node", "id": 501360629, "lat": 7.416667, "lon": 3.733333, "tags": {"GNS:dsg_code": "PPL", "GNS:dsg_string": "populated place", "GNS:id": "-1999458", "alt_name": "Alwo-Esin;Alowo Esin", "fixme": "no population estimate available, defaulted to village", "is_in:country": "Nigeria", "name": "Alwo-Esin", "place": "village", "source": "GNS"}}, {"type": "node", "id": 501360671, "lat": 7.55, "lon": 3.45, "tags": {"GNS:dsg_code": "PPL", "GNS:dsg_string": "populated place", "GNS:id": "-2006669", "fixme": "no population estimate available, defaulted to village", "is_in:country": "Nigeria", "name": "Eruwa Titun", "place": "town", "source": "GNS"}}, {"type": "node", "id": 501366287, "lat": 7.25, "lon": 3.75, "tags": {"GNS:dsg_code": "PPL", "GNS:dsg_string": "populated place", "GNS:id": "-1999713", "alt_name": "Amin", "fixme": "no population estimate available, defaulted to village", "is_in:country": "Nigeria", "name": "Amini", "place": "village", "source": "GNS"}}, {"type": "node", "id": 501367186, "lat": 7.533147, "lon": 3.5181415, "tags": {"GNS:dsg_code": "PPL", "GNS:dsg_string": "populated place", "GNS:id": "-1997300", "fixme": "no population estimate available, defaulted to village", "is_in:country": "Nigeria", "name": "Adeleye", "place": "village", "source": "GNS"}}, {"type": "node", "id": 501367765, "lat": 7.348056, "lon": 3.750278, "tags": {"GNS:dsg_code": "PPL", "GNS:dsg_string": "populated place", "GNS:id": "-2004082", "alt_name": "Dagilawgba", "fixme": "no population estimate available, defaulted to village", "name": "Dagilogba", "place": "village", "source": "GNS"}}, {"type": "node", "id": 501370860, "lat": 7.483333, "lon": 3.566667, "tags": {"GNS:dsg_code": "PPL", "GNS:dsg_string": "populated place", "GNS:id": "-1996842", "alt_name": "Abemaw", "fixme": "no population estimate available, defaulted to village", "is_in:country": "Nigeria", "name": "Abemo", "place": "village", "source": "GNS"}}, {"type": "node", "id": 501380198, "lat": 7.316667, "lon": 3.683333, "tags": {"GNS:dsg_code": "PPL", "GNS:dsg_string": "populated place", "GNS:id": "-2012812", "alt_name": "Itawkaw", "fixme": "no population estimate available, defaulted to village", "is_in:country": "Nigeria", "name": "Itoko", "place": "village", "source": "GNS"}}, {"type": "node", "id": 501384877, "lat": 7.516667, "lon": 3.516667, "tags": {"GNS:dsg_code": "PPL", "GNS:dsg_string": "populated place", "GNS:id": "-2012149", "alt_name": "Ilaw", "fixme": "no population estimate available, defaulted to village", "is_in:country": "Nigeria", "name": "Ilo", "place": "village", "source": "GNS"}}, {"type": "node", "id": 501405978, "lat": 7.528056, "lon": 3.757222, "tags": {"GNS:dsg_code": "PPL", "GNS:dsg_string": "populated place", "GNS:id": "-2023886", "alt_name": "Awpaleye", "fixme": "no population estimate available, defaulted to village", "is_in:country": "Nigeria", "name": "Opaleye", "place": "village", "source": "GNS"}}, {"type": "node", "id": 501407144, "lat": 7.466667, "lon": 3.55, "tags": {"GNS:dsg_code": "PPL", "GNS:dsg_string": "populated place", "GNS:id": "-2023310", "alt_name": "Awlawpade", "fixme": "no population estimate available, defaulted to village", "is_in:country": "Nigeria", "name": "Olopade", "place": "village", "source": "GNS"}}, {"type": "node", "id": 501409699, "lat": 7.316667, "lon": 3.616667, "tags": {"GNS:dsg_code": "PPL", "GNS:dsg_string": "populated place", "GNS:id": "-2000424", "fixme": "no population estimate available, defaulted to village", "is_in:country": "Nigeria", "name": "Ageri", "name:ru": "\u0410\u0433\u0435\u0440\u0438", "place": "village", "source": "GNS"}}, {"type": "node", "id": 501413383, "lat": 7.6231325, "lon": 3.7470603, "tags": {"GNS:dsg_code": "PPL", "GNS:dsg_string": "populated place", "GNS:id": "-1996652", "fixme": "no population estimate available, defaulted to village", "is_in:country": "Nigeria", "name": "Aba Ada", "place": "village", "source": "GNS"}}, {"type": "node", "id": 501413570, "lat": 7.5567503, "lon": 3.7771576, "tags": {"GNS:dsg_code": "PPL", "GNS:dsg_string": "populated place", "GNS:id": "-2006367", "fixme": "no population estimate available, defaulted to village", "is_in:country": "Nigeria", "name": "Elesinfunfun", "place": "village", "source": "GNS"}}, {"type": "node", "id": 501418732, "lat": 7.500833, "lon": 3.765833, "tags": {"GNS:dsg_code": "PPL", "GNS:dsg_string": "populated place", "GNS:id": "-2022978", "alt_name": "Okuna", "fixme": "no population estimate available, defaulted to village", "is_in:country": "Nigeria", "name": "Okuno", "place": "village", "source": "GNS"}}, {"type": "node", "id": 501442021, "lat": 7.3944614, "lon": 3.748076, "tags": {"GNS:dsg_code": "PPL", "GNS:dsg_string": "populated place", "GNS:id": "-2023575", "fixme": "no population estimate available, defaulted to village", "name": "Adio Station", "place": "village", "source": "GNS"}}, {"type": "node", "id": 501445249, "lat": 7.466667, "lon": 3.466667, "tags": {"GNS:dsg_code": "PPL", "GNS:dsg_string": "populated place", "GNS:id": "-1998765", "alt_name": "Akaw", "fixme": "no population estimate available, defaulted to village", "is_in:country": "Nigeria", "name": "Ako", "place": "village", "source": "GNS"}}, {"type": "node", "id": 501459518, "lat": 7.366667, "lon": 3.633333, "tags": {"GNS:dsg_code": "PPL", "GNS:dsg_string": "populated place", "GNS:id": "-2005834", "fixme": "no population estimate available, defaulted to village", "is_in:country": "Nigeria", "name": "Efon", "place": "village", "source": "GNS", "wikidata": "Q5347554"}}, {"type": "node", "id": 501465277, "lat": 7.3, "lon": 3.65, "tags": {"GNS:dsg_code": "PPL", "GNS:dsg_string": "populated place", "GNS:id": "-2017746", "alt_name": "Atilerin", "fixme": "no population estimate available, defaulted to village", "is_in:country": "Nigeria", "name": "Lerin", "place": "village", "source": "GNS"}}, {"type": "node", "id": 501465586, "lat": 7.283333, "lon": 3.533333, "tags": {"GNS:dsg_code": "PPL", "GNS:dsg_string": "populated place", "GNS:id": "-2025917", "alt_name": "Sholalu", "fixme": "no population estimate available, defaulted to village", "is_in:country": "Nigeria", "name": "Salalu", "place": "village", "source": "GNS"}}, {"type": "node", "id": 501472276, "lat": 7.483333, "lon": 3.466667, "tags": {"GNS:dsg_code": "PPL", "GNS:dsg_string": "populated place", "GNS:id": "-1999459", "alt_name": "Anowonle", "fixme": "no population estimate available, defaulted to village", "is_in:country": "Nigeria", "name": "Alowonle", "place": "village", "source": "GNS"}}, {"type": "node", "id": 501473824, "lat": 7.5697513, "lon": 3.7070596, "tags": {"GNS:dsg_code": "PPL", "GNS:dsg_string": "populated place", "GNS:id": "-1996737", "fixme": "no population estimate available, defaulted to village", "name": "Aba Oke", "place": "village", "source": "GNS"}}, {"type": "node", "id": 501480302, "lat": 7.5956398, "lon": 3.7318417, "tags": {"GNS:dsg_code": "PPL", "GNS:dsg_string": "populated place", "GNS:id": "-1998732", "fixme": "no population estimate available, defaulted to village", "name": "Akinsan", "place": "village", "source": "GNS"}}, {"type": "node", "id": 501480836, "lat": 7.4166869, "lon": 3.5333397, "tags": {"GNS:dsg_code": "PPL", "GNS:dsg_string": "populated place", "GNS:id": "-2023227", "fixme": "no population estimate available, defaulted to village", "is_in:country": "Nigeria", "name": "Olokemeji", "place": "village", "source": "GNS"}}, {"type": "node", "id": 501490358, "lat": 7.3935507, "lon": 3.7535279, "tags": {"GNS:dsg_code": "PPL", "GNS:dsg_string": "populated place", "GNS:id": "-2023575", "fixme": "no population estimate available, defaulted to village", "is_in:country": "Nigeria", "name": "Omin Adio", "place": "village", "source": "GNS"}}, {"type": "node", "id": 501490536, "lat": 7.316667, "lon": 3.8, "tags": {"GNS:dsg_code": "PPL", "GNS:dsg_string": "populated place", "GNS:id": "-2023100", "alt_name": "Oleyo Market", "fixme": "no population estimate available, defaulted to village", "is_in:country": "Nigeria", "name": "Oleyo", "place": "village", "source": "GNS"}}, {"type": "node", "id": 501491446, "lat": 7.583333, "lon": 3.5, "tags": {"GNS:dsg_code": "PPL", "GNS:dsg_string": "populated place", "GNS:id": "-2006613", "alt_name": "Erin Aboro;Erin", "fixme": "no population estimate available, defaulted to village", "is_in:country": "Nigeria", "name": "Erin Aboro", "place": "village", "source": "GNS"}}, {"type": "node", "id": 501492188, "lat": 7.316667, "lon": 3.5, "tags": {"GNS:dsg_code": "PPL", "GNS:dsg_string": "populated place", "GNS:id": "-1999026", "alt_name": "Alabata Market", "fixme": "no population estimate available, defaulted to village", "is_in:country": "Nigeria", "name": "Alabata", "place": "village", "source": "GNS"}}, {"type": "node", "id": 501492267, "lat": 7.5512777, "lon": 3.7324457, "tags": {"GNS:dsg_code": "PPL", "GNS:dsg_string": "populated place", "GNS:id": "-1997339", "fixme": "no population estimate available, defaulted to village", "is_in:country": "Nigeria", "name": "Adewale", "place": "hamlet", "source": "GNS"}}, {"type": "node", "id": 501493180, "lat": 7.516667, "lon": 3.566667, "tags": {"GNS:dsg_code": "PPL", "GNS:dsg_string": "populated place", "GNS:id": "-2006270", "alt_name": "Elleyelle;Eleyele", "fixme": "no population estimate available, defaulted to village", "is_in:country": "Nigeria", "name": "Eleiyele", "place": "village", "source": "GNS"}}, {"type": "node", "id": 501493215, "lat": 7.2832758, "lon": 3.7173067, "tags": {"GNS:dsg_code": "PPL", "GNS:dsg_string": "populated place", "GNS:id": "-2005863", "fixme": "no population estimate available, defaulted to village", "is_in:country": "Nigeria", "name": "Egbe", "place": "village", "source": "GNS"}}, {"type": "node", "id": 501493340, "lat": 7.25, "lon": 3.666667, "tags": {"GNS:dsg_code": "PPL", "GNS:dsg_string": "populated place", "GNS:id": "-2015213", "alt_name": "Ogunbayo", "fixme": "no population estimate available, defaulted to village", "is_in:country": "Nigeria", "name": "Kemta", "place": "village", "source": "GNS"}}, {"type": "node", "id": 501494744, "lat": 7.333333, "lon": 3.716667, "tags": {"GNS:dsg_code": "PPL", "GNS:dsg_string": "populated place", "GNS:id": "-2023441", "alt_name": "Oloyo Oso;Awshaw", "fixme": "no population estimate available, defaulted to village", "is_in:country": "Nigeria", "name": "Awshaw", "place": "village", "source": "GNS"}}, {"type": "node", "id": 501495144, "lat": 7.507778, "lon": 3.792222, "tags": {"GNS:dsg_code": "PPL", "GNS:dsg_string": "populated place", "GNS:id": "-2005706", "alt_name": "Ebawyawmi", "fixme": "no population estimate available, defaulted to village", "is_in:country": "Nigeria", "name": "Eboyomi", "place": "village", "source": "GNS"}}, {"type": "node", "id": 501496328, "lat": 7.3120102, "lon": 3.8041128, "tags": {"GNS:dsg_string": "populated place", "GNS:id": "402170", "fixme": "no population estimate available, defaulted to village", "is_in:country": "Nigeria", "name": "Ayantola", "place": "village", "source": "GNS"}}, {"type": "node", "id": 501502028, "lat": 7.5342397, "lon": 3.7511426, "tags": {"GNS:dsg_code": "PPL", "GNS:dsg_string": "populated place", "GNS:id": "-1996828", "fixme": "no population estimate available, defaulted to village", "is_in:country": "Nigeria", "name": "Abegunde", "place": "village", "source": "GNS"}}, {"type": "node", "id": 501502836, "lat": 7.572091, "lon": 3.6537551, "tags": {"GNS:dsg_code": "PPL", "GNS:dsg_string": "populated place", "GNS:id": "-2002291", "fixme": "no population estimate available, defaulted to village", "is_in:country": "Nigeria", "name": "Batake", "place": "village", "source": "GNS"}}, {"type": "node", "id": 501504760, "lat": 7.5425423, "lon": 3.7716852, "tags": {"GNS:dsg_code": "PPL", "GNS:dsg_string": "populated place", "GNS:id": "-1997345", "alt_name": "Idowu", "fixme": "no population estimate available, defaulted to village", "is_in:country": "Nigeria", "name": "Adewuyi", "place": "village", "source": "GNS"}}, {"type": "node", "id": 501508018, "lat": 7.5823682, "lon": 3.750998, "tags": {"GNS:dsg_code": "PPL", "GNS:dsg_string": "populated place", "GNS:id": "387446", "fixme": "no population estimate available, defaulted to village", "name": "Opande", "place": "village", "source": "GNS"}}, {"type": "node", "id": 501508047, "lat": 7.5920324, "lon": 3.7569266, "tags": {"GNS:dsg_code": "PPL", "GNS:dsg_string": "populated place", "GNS:id": "387435", "fixme": "no population estimate available, defaulted to village", "name": "Onikoko", "place": "village", "source": "GNS"}}, {"type": "node", "id": 501508628, "lat": 7.5874002, "lon": 3.7910018, "tags": {"GNS:dsg_code": "PPL", "GNS:dsg_string": "populated place", "GNS:id": "-2006584", "fixme": "no population estimate available, defaulted to village", "is_in:country": "Nigeria", "name": "Erekete", "place": "village", "source": "GNS"}}, {"type": "node", "id": 501516351, "lat": 7.5732184, "lon": 3.6788698, "tags": {"GNS:dsg_code": "PPL", "GNS:dsg_string": "populated place", "GNS:id": "-2010808", "alt_name": "Idi-Iya", "fixme": "no population estimate available, defaulted to village", "is_in:country": "Nigeria", "name": "Idiya", "place": "village", "source": "GNS"}}, {"type": "node", "id": 501518324, "lat": 7.5997776, "lon": 3.4496321, "tags": {"GNS:dsg_code": "PPL", "GNS:id": "-2017549", "fixme": "no population estimate available, defaulted to village", "name": "Lanlate", "name:ru": "\u041b\u0430\u043d\u043b\u0430\u0442\u0435", "place": "village", "source": "GNS"}}, {"type": "node", "id": 501518607, "lat": 7.4009916, "lon": 3.4846462, "tags": {"GNS:dsg_code": "PPL", "GNS:dsg_string": "populated place", "GNS:id": "-2012980", "fixme": "no population estimate available, defaulted to village", "is_in:country": "Nigeria", "name": "Eruwa", "place": "village", "source": "GNS"}}, {"type": "node", "id": 501519727, "lat": 7.504167, "lon": 3.7475, "tags": {"GNS:dsg_code": "PPL", "GNS:dsg_string": "populated place", "GNS:id": "-2022251", "alt_name": "Oguneyye", "fixme": "no population estimate available, defaulted to village", "is_in:country": "Nigeria", "name": "Ogunleye", "place": "village", "source": "GNS"}}, {"type": "node", "id": 501519987, "lat": 7.546272, "lon": 3.7632985, "tags": {"GNS:dsg_code": "PPL", "GNS:dsg_string": "populated place", "GNS:id": "387691", "fixme": "no population estimate available, defaulted to village", "is_in:country": "Nigeria", "name": "Fake", "place": "village", "source": "GNS"}}, {"type": "node", "id": 501522849, "lat": 7.35, "lon": 3.65, "tags": {"GNS:dsg_code": "PPL", "GNS:dsg_string": "populated place", "GNS:id": "-2010651", "alt_name": "Idiya", "fixme": "no population estimate available, defaulted to village", "is_in:country": "Nigeria", "name": "Ida", "place": "village", "source": "GNS"}}, {"type": "node", "id": 501524207, "lat": 7.5346413, "lon": 3.7332794, "tags": {"GNS:dsg_code": "PPL", "GNS:dsg_string": "populated place", "GNS:id": "-2024570", "fixme": "no population estimate available, defaulted to village", "is_in:country": "Nigeria", "name": "Oyagbe", "place": "hamlet", "source": "GNS"}}, {"type": "node", "id": 501524611, "lat": 7.624167, "lon": 3.784444, "tags": {"GNS:dsg_code": "PPL", "GNS:dsg_string": "populated place", "GNS:id": "-2026488", "alt_name": "Bashanu", "fixme": "no population estimate available, defaulted to village", "is_in:country": "Nigeria", "name": "Shanu", "place": "village", "source": "GNS"}}, {"type": "node", "id": 501524857, "lat": 7.582222, "lon": 3.769167, "tags": {"GNS:dsg_code": "PPL", "GNS:dsg_string": "populated place", "GNS:id": "-2027811", "alt_name": "Akintawla", "fixme": "no population estimate available, defaulted to village", "name": "Tola", "place": "village", "source": "GNS"}}, {"type": "node", "id": 501525096, "lat": 7.6230193, "lon": 3.7542379, "tags": {"GNS:dsg_code": "PPL", "GNS:dsg_string": "populated place", "GNS:id": "-2004233", "fixme": "no population estimate available, defaulted to village", "is_in:country": "Nigeria", "name": "Dalute", "place": "village", "source": "GNS"}}, {"type": "node", "id": 501525150, "lat": 7.5967582, "lon": 3.8116102, "tags": {"GNS:dsg_code": "PPL", "GNS:dsg_string": "populated place", "GNS:id": "-2017450", "fixme": "no population estimate available, defaulted to village", "is_in:country": "Nigeria", "name": "Laleye", "place": "village", "source": "GNS"}}, {"type": "node", "id": 501525948, "lat": 7.5771008, "lon": 3.6624613, "tags": {"GNS:dsg_code": "PPL", "GNS:dsg_string": "populated place", "GNS:id": "-1999244", "fixme": "no population estimate available, defaulted to village", "is_in:country": "Nigeria", "name": "Alaraba", "place": "village", "source": "GNS"}}, {"type": "node", "id": 501526602, "lat": 7.2833037, "lon": 3.7173, "tags": {"GNS:dsg_code": "PPL", "GNS:dsg_string": "populated place", "GNS:id": "-1999092", "fixme": "no population estimate available, defaulted to village", "is_in:country": "Nigeria", "name": "Alagbagba", "place": "village", "source": "GNS"}}]}