{"version": 0.6, "generator": "Overpass API 0.7.62.11 87bfad18", "osm3s": {"timestamp_osm_base": "2026-05-02T07:34:18Z", "copyright": "The data included in this document is from www.openstreetmap.org. The data is made available under ODbL."}, "elements": [{"type": "node", "id": 501353891, "lat": 8.5334875, "lon": 4.3866747, "tags": {"GNS:dsg_code": "PPL", "GNS:dsg_string": "populated place", "GNS:id": "-2022653", "fixme": "no population estimate available, defaulted to village", "is_in:country": "Nigeria", "name": "Oketepe Oniyangan", "place": "village", "source": "GNS"}}, {"type": "node", "id": 501364889, "lat": 8.45, "lon": 4.283333, "tags": {"GNS:dsg_code": "PPL", "GNS:dsg_string": "populated place", "GNS:id": "-1999210", "alt_name": "Alapamawaw;Alapamawo", "fixme": "no population estimate available, defaulted to village", "is_in:country": "Nigeria", "name": "Alapamowo", "place": "village", "source": "GNS"}}, {"type": "node", "id": 501366211, "lat": 8.6687372, "lon": 4.3648299, "tags": {"GNS:dsg_code": "PPL", "GNS:dsg_string": "populated place", "GNS:id": "-2000605", "fixme": "no population estimate available, defaulted to village", "is_in:country": "Nigeria", "name": "Aseseru", "place": "village", "source": "GNS"}}, {"type": "node", "id": 501406797, "lat": 8.416667, "lon": 4.35, "tags": {"GNS:dsg_code": "PPL", "GNS:dsg_string": "populated place", "GNS:id": "-2022056", "alt_name": "Logbin", "fixme": "no population estimate available, defaulted to village", "is_in:country": "Nigeria", "name": "Ogbin", "place": "village", "source": "GNS"}}, {"type": "node", "id": 501407604, "lat": 8.466667, "lon": 4.45, "tags": {"GNS:dsg_code": "PPL", "GNS:dsg_string": "populated place", "GNS:id": "-2027856", "alt_name": "Tawpe", "fixme": "no population estimate available, defaulted to village", "is_in:country": "Nigeria", "name": "Tope", "place": "village", "source": "GNS"}}, {"type": "node", "id": 501410838, "lat": 8.416667, "lon": 4.35, "tags": {"GNS:dsg_code": "PPL", "GNS:dsg_string": "populated place", "GNS:id": "-2006576", "alt_name": "Popo", "fixme": "no population estimate available, defaulted to village", "is_in:country": "Nigeria", "name": "Epupu", "place": "village", "source": "GNS"}}, {"type": "node", "id": 501412111, "lat": 8.783333, "lon": 4.266667, "tags": {"GNS:dsg_code": "PPL", "GNS:dsg_string": "populated place", "GNS:id": "-1999166", "alt_name": "Suberu", "fixme": "no population estimate available, defaulted to village", "is_in:country": "Nigeria", "name": "Alakara", "place": "village", "source": "GNS"}}, {"type": "node", "id": 501412276, "lat": 8.5, "lon": 4.45, "tags": {"GNS:dsg_code": "PPL", "GNS:dsg_string": "populated place", "GNS:id": "-1996840", "alt_name": "Abe-Emmi", "fixme": "no population estimate available, defaulted to village", "is_in:country": "Nigeria", "name": "Abemi", "place": "village", "source": "GNS"}}, {"type": "node", "id": 501413463, "lat": 8.5158096, "lon": 4.3302901, "tags": {"GNS:dsg_code": "PPL", "GNS:dsg_string": "populated place", "GNS:id": "-2003148", "fixme": "no population estimate available, defaulted to village", "is_in:country": "Nigeria", "name": "Budoke", "place": "village", "source": "GNS"}}, {"type": "node", "id": 501413536, "lat": 8.483333, "lon": 4.2, "tags": {"GNS:dsg_code": "PPL", "GNS:dsg_string": "populated place", "GNS:id": "-2006274", "alt_name": "Elleyelle", "fixme": "no population estimate available, defaulted to village", "is_in:country": "Nigeria", "name": "Eleiyele", "place": "village", "source": "GNS"}}, {"type": "node", "id": 501441483, "lat": 8.45, "lon": 4.433333, "tags": {"GNS:dsg_code": "PPL", "GNS:dsg_string": "populated place", "GNS:id": "-2026910", "alt_name": "Shokoto", "fixme": "no population estimate available, defaulted to village", "is_in:country": "Nigeria", "name": "Sokoto", "place": "village", "source": "GNS"}}, {"type": "node", "id": 501445606, "lat": 8.55, "lon": 4.266667, "tags": {"GNS:dsg_code": "PPL", "GNS:dsg_string": "populated place", "GNS:id": "-2015276", "alt_name": "Birnin Ketake", "fixme": "no population estimate available, defaulted to village", "is_in:country": "Nigeria", "name": "Ketere", "place": "village", "source": "GNS"}}, {"type": "node", "id": 501457769, "lat": 8.516667, "lon": 4.416667, "tags": {"GNS:dsg_code": "PPL", "GNS:dsg_string": "populated place", "GNS:id": "-2006305", "alt_name": "Ellellu", "fixme": "no population estimate available, defaulted to village", "is_in:country": "Nigeria", "name": "Elelu", "place": "village", "source": "GNS"}}, {"type": "node", "id": 501473169, "lat": 8.5660787, "lon": 4.3901583, "tags": {"GNS:dsg_code": "PPL", "GNS:dsg_string": "populated place", "GNS:id": "-1997027", "fixme": "no population estimate available, defaulted to village", "is_in:country": "Nigeria", "name": "Abule Alagbede", "place": "village", "source": "GNS"}}, {"type": "node", "id": 501473847, "lat": 8.5158096, "lon": 4.3302901, "tags": {"GNS:dsg_code": "PPL", "GNS:dsg_string": "populated place", "GNS:id": "-2003133", "fixme": "no population estimate available, defaulted to village", "is_in:country": "Nigeria", "name": "Budo Atan", "place": "village", "source": "GNS"}}, {"type": "node", "id": 501473864, "lat": 8.45, "lon": 4.216667, "tags": {"GNS:dsg_code": "PPL", "GNS:dsg_string": "populated place", "GNS:id": "-2006363", "alt_name": "Bi-Eleshin", "fixme": "no population estimate available, defaulted to village", "is_in:country": "Nigeria", "name": "Elesin", "place": "village", "source": "GNS"}}, {"type": "node", "id": 501493156, "lat": 8.55, "lon": 4.2, "tags": {"GNS:dsg_code": "PPL", "GNS:dsg_string": "populated place", "GNS:id": "-2000471", "alt_name": "Arrowshaiye", "fixme": "no population estimate available, defaulted to village", "is_in:country": "Nigeria", "name": "Arowosaiye", "place": "village", "source": "GNS"}}, {"type": "node", "id": 501499761, "lat": 8.483333, "lon": 4.233333, "tags": {"GNS:dsg_code": "PPL", "GNS:dsg_string": "populated place", "GNS:id": "-2008393", "alt_name": "Gbogun", "fixme": "no population estimate available, defaulted to village", "is_in:country": "Nigeria", "name": "Gbemi", "place": "village", "source": "GNS"}}, {"type": "node", "id": 501516663, "lat": 8.6308169, "lon": 4.3823824, "tags": {"GNS:dsg_code": "PPL", "GNS:dsg_string": "populated place", "GNS:id": "-2023329", "fixme": "no population estimate available, defaulted to village", "is_in:country": "Nigeria", "name": "Olori", "place": "village", "source": "GNS"}}, {"type": "node", "id": 501517143, "lat": 8.5158096, "lon": 4.3302901, "tags": {"GNS:dsg_code": "PPL", "GNS:dsg_string": "populated place", "GNS:id": "-2005836", "fixme": "no population estimate available, defaulted to village", "is_in:country": "Nigeria", "name": "Efue", "place": "village", "source": "GNS"}}, {"type": "node", "id": 501517434, "lat": 8.5325092, "lon": 4.3753027, "tags": {"GNS:dsg_code": "PPL", "GNS:dsg_string": "populated place", "GNS:id": "-2012944", "fixme": "no population estimate available, defaulted to village", "is_in:country": "Nigeria", "name": "Iyabudo", "place": "village", "source": "GNS"}}, {"type": "node", "id": 501520289, "lat": 8.5660787, "lon": 4.3901583, "tags": {"GNS:dsg_code": "PPL", "GNS:dsg_string": "populated place", "GNS:id": "-1997809", "fixme": "no population estimate available, defaulted to village", "is_in:country": "Nigeria", "name": "Agbono Kekere", "place": "village", "source": "GNS"}}, {"type": "node", "id": 501525211, "lat": 8.666667, "lon": 4.4, "tags": {"GNS:dsg_code": "PPL", "GNS:dsg_string": "populated place", "GNS:id": "-2001939", "alt_name": "Bamgbose", "fixme": "no population estimate available, defaulted to village", "is_in:country": "Nigeria", "name": "Bangbose", "place": "village", "source": "GNS"}}, {"type": "node", "id": 501525650, "lat": 8.466667, "lon": 4.333333, "tags": {"GNS:dsg_code": "PPL", "GNS:dsg_string": "populated place", "GNS:id": "-2016688", "alt_name": "Karuma", "fixme": "no population estimate available, defaulted to village", "is_in:country": "Nigeria", "name": "Kurumo", "place": "village", "source": "GNS"}}, {"type": "node", "id": 501525695, "lat": 8.5349384, "lon": 4.4392373, "tags": {"GNS:dsg_code": "PPL", "GNS:dsg_string": "populated place", "GNS:id": "-2009485", "fixme": "no population estimate available, defaulted to village", "is_in:country": "Nigeria", "name": "Goronjo", "place": "village", "source": "GNS"}}, {"type": "node", "id": 501525723, "lat": 8.55, "lon": 4.433333, "tags": {"GNS:dsg_code": "PPL", "GNS:dsg_string": "populated place", "GNS:id": "-1997373", "alt_name": "Adigbongdo", "fixme": "no population estimate available, defaulted to village", "is_in:country": "Nigeria", "name": "Adigbongbo", "place": "village", "source": "GNS"}}, {"type": "node", "id": 501525734, "lat": 8.5355857, "lon": 4.3565958, "tags": {"GNS:dsg_code": "PPL", "GNS:dsg_string": "populated place", "GNS:id": "-1997551", "fixme": "no population estimate available, defaulted to village", "is_in:country": "Nigeria", "name": "Afo", "place": "village", "source": "GNS"}}]}